序号,机构编码,机构名称,项目编码,施工许可证编号,备案号,备案时间,所属科室,项目名称,项目地点,纬度,经度,造价,建设内容
1,AJ320584-1,苏州市吴江区建设工程质量安全监督站,3205841807180102,,AJ320584120211450,2021-08-02,执法一中队201201（运东同里震泽）,"年产超导电缆100公里（6千伏及以上（陆上用）干法交联电力电缆制造项目除外）、超导磁体50台-生产车间2,生产车间3,研发车间,门卫2",吴江经济技术开发区大兢路518号,31.110135,120.708615,5850.04,房屋建筑
2,AJ320584-1,苏州市吴江区建设工程质量安全监督站,3205842105080104,,AJ320584120211444,2021-07-29,执法一中队201201（运东同里震泽）,年产环保包装纸制品7500万平方米（一期建设工程（包含：2#厂房、配电房、门卫一、门卫二））,吴江经济技术开发区同津大道东侧、云龙东路北侧,31.118386,120.715950,8100,房屋建筑
3,AJ320584-1,苏州市吴江区建设工程质量安全监督站,3205842104160104,320509202107280101,AJ320584120211433,2021-07-26,执法一中队201201（运东同里震泽）,年产塑料制品600吨及光学扩散板2万吨项目,经济技术开发区长港路南横桥路西侧,31.180173,120.683269,9510.41,房屋建筑
4,AJ320584-1,苏州市吴江区建设工程质量安全监督站,3205842101220102,320509202107160101,AJ320584120211024,2021-07-12,执法一中队201201（运东同里震泽）,年包装商品4000万件-年包装商品4000万件,吴江经济技术开发区同津大道1688号,31.112604,120.709554,20100,房屋建筑
5,AJ320584-1,苏州市吴江区建设工程质量安全监督站,3205842106090102,320509202107220203,AJ320584120211022,2021-07-09,执法一中队201201（运东同里震泽）,内部装修,苏州市吴江区同里镇云梨路528号,31.170000,120.630000,500,装饰装修
6,AJ320584-1,苏州市吴江区建设工程质量安全监督站,3205842104230105,320509202107140103,AJ320584120211021,2021-07-08,执法一中队201201（运东同里震泽）,内部装修-苏州朗信智能科技有限公司内部装修,江苏省苏州市吴江经济技术开发区光明路1868号E栋北侧,31.170000,120.630000,85,装饰装修
7,AJ320584-1,苏州市吴江区建设工程质量安全监督站,3205842105260105,320509202107090503,AJ320584120211013,2021-07-07,执法一中队201201（运东同里震泽）,内部装修,吴江经济技术开发区叶锦路8号,31.128641,120.692333,30,装饰装修
8,AJ320584-1,苏州市吴江区建设工程质量安全监督站,3205842104070101,,AJ320584120210985,2021-06-23,执法一中队201201（运东同里震泽）,苏州京东方医院扩建工程,江苏省苏州市吴江区庞东路600号,31.170000,120.630000,2457.3,房屋建筑
9,AJ320584-1,苏州市吴江区建设工程质量安全监督站,3205842104200102,,AJ320584120210952,2021-06-03,执法一中队201201（运东同里震泽）,扩建厂房,苏州市吴江区同里镇同肖西路1999号,31.176177,120.714019,223,房屋建筑
10,AJ320584-1,苏州市吴江区建设工程质量安全监督站,3205842007150102,,AJ320584120210947,2021-06-02,执法一中队201201（运东同里震泽）,内部装修-内部装修,吴江经济技术开发区庞金路1801号庞金工业坊,31.138486,120.685089,682.06,装饰装修
11,AJ320584-1,苏州市吴江区建设工程质量安全监督站,3205842104190104,,AJ320584120210942,2021-05-31,执法一中队201201（运东同里震泽）,内部装修,江苏省吴江经济开发区庞金路808号,31.170000,120.630000,458.2,装饰装修
12,AJ320584-1,苏州市吴江区建设工程质量安全监督站,3205842012030101,320509202105280203,AJ320584120210931,2021-05-25,执法一中队201201（运东同里震泽）,内部装修,吴江经济技术开发庞北路东侧,31.170000,120.630000,1598.86,装饰装修
13,AJ320584-1,苏州市吴江区建设工程质量安全监督站,3205842007080101,320509202105200401,AJ320584120210923,2021-05-18,执法一中队201201（运东同里震泽）,新增建设年产工程机械部件2万套项目（一标段）,吴江市同津大道东侧、新字路北侧,31.129692,120.710183,3315,房屋建筑
14,AJ320584-1,苏州市吴江区建设工程质量安全监督站,3205842008200104,320509202105080401,AJ320584120210902,2021-05-07,执法一中队201201（运东同里震泽）,吴江开发区（同里镇）庞东路东侧栅桥路南侧地块项目（WJ-J-2020-019）二期,吴江开发区庞东路东侧栅桥路南侧,31.149728,120.698056,65204.03,房屋建筑
15,AJ320584-1,苏州市吴江区建设工程质量安全监督站,3205842103120102,320509202104280201,AJ320584120210876,2021-04-22,执法一中队201201（运东同里震泽）,"年产铜箔2.2万吨-车间一,车间二,取水泵房,门卫",江苏省苏州市吴江区震泽镇朱家浜村,31.170000,120.630000,2508.68,房屋建筑
16,AJ320584-1,苏州市吴江区建设工程质量安全监督站,3205842012220103,320509202104140201,AJ320584120210861,2021-04-14,执法一中队201201（运东同里震泽）,"改建厂房40000平方米-生产车间一,生产车间四",吴江经济开发区（同里镇）屯村合心村,31.179532,120.788973,2420,房屋建筑
17,AJ320584-1,苏州市吴江区建设工程质量安全监督站,3205841910310101,320509202104150101,AJ320584120210851,2021-04-09,执法一中队201201（运东同里震泽）,年产给排水成套设备200套项目-车间一,吴江区同里镇上元街富士路,31.156315,120.719534,630,房屋建筑
18,AJ320584-1,苏州市吴江区建设工程质量安全监督站,3205842005070101,,AJ320584120210843,2021-04-02,执法一中队201201（运东同里震泽）,新建厂房和辅房100000平方米（2#厂房、3#厂房）,震泽镇双阳村民营开发区318国道南侧,30.934012,120.527557,5023.01,房屋建筑
19,AJ320584-1,苏州市吴江区建设工程质量安全监督站,3205842005260101,320509202103300601,AJ320584120210826,2021-03-24,执法一中队201201（运东同里震泽）,公司整体搬迁改造项目三标段,大兢路与同津大道交叉口东南侧地块,31.105880,120.707209,217.01,房屋建筑
20,AJ320584-1,苏州市吴江区建设工程质量安全监督站,3205842102080101,320509202103300401,AJ320584120210821,2021-03-23,执法一中队201201（运东同里震泽）,"新建辅房-新建辅房,门卫",吴江经济技术开发区泉源路68号,31.146298,120.688924,6000,房屋建筑
21,AJ320584-1,苏州市吴江区建设工程质量安全监督站,3205842008210102,320509202103300501,AJ320584120210820,2021-03-23,执法一中队201201（运东同里震泽）,年产2400万平方米光伏玻璃,苏州吴江经济开发区潘龙路88号,31.125967,120.708638,1355,房屋建筑
22,AJ320584-1,苏州市吴江区建设工程质量安全监督站,3205842012170101,320509202103150701,AJ320584120210808,2021-03-15,执法一中队201201（运东同里震泽）,年产200吨益生菌菌粉及10000吨微生态制剂项目-车间一,吴江经济技术开发区大兢路、光明路交叉口西北侧,31.107240,120.711710,2950,房屋建筑
23,AJ320584-1,苏州市吴江区建设工程质量安全监督站,3205842010120103,320509202103150201,AJ320584120210792,2021-03-10,执法一中队201201（运东同里震泽）,年产纸板500万平方米-新建车间二,吴江经济技术开发区西联村,31.100526,120.686337,2466,房屋建筑
24,AJ320584-1,苏州市吴江区建设工程质量安全监督站,3205842010090102,320509202103300701,AJ320584120210780,2021-03-02,执法一中队201201（运东同里震泽）,"年产120万平方米中空玻璃-玻璃加工车间（三期）,危险品库,垃圾池（含雨水收集池、应急池）,消防泵房及水池",吴江经济开发区庞金路869号。,31.119383,120.683674,5925.71,房屋建筑
25,AJ320584-1,苏州市吴江区建设工程质量安全监督站,3205842010260105,320509202103020101,AJ320584120210775,2021-02-24,执法一中队201201（运东同里震泽）,吴江区震泽实验小学新建教学楼工程,苏州市吴江区震泽镇镇南一路1688号,30.911056,120.512547,6669.21,房屋建筑
26,AJ320584-1,苏州市吴江区建设工程质量安全监督站,3205842011200102,320509202102260101,AJ320584120210773,2021-02-22,执法一中队201201（运东同里震泽）,年产液压元件35万件,吴江经济技术开发区兴东路西侧采字路北侧,31.170000,120.630000,68725.56,房屋建筑
27,AJ320584-1,苏州市吴江区建设工程质量安全监督站,3205842012240101,,AJ320584120210748,2021-01-28,执法一中队201201（运东同里震泽）,"年产视觉模块3000套、工业机器人2000台、伺服驱动产品6000台-4#车间,5#车间,设备用房2,消防控制室2",苏州市吴江经济技术开发区富家路、乌金路交叉口西北侧,31.170000,120.630000,4418,房屋建筑
28,AJ320584-1,苏州市吴江区建设工程质量安全监督站,3205842009220102,320509202101270201,AJ320584120210743,2021-01-25,执法一中队201201（运东同里震泽）,"新建厂房-车间四,配电间2",吴江经济技术开发区庞东路以东南村路以北,31.184714,120.696142,2230,房屋建筑
29,AJ320584-1,苏州市吴江区建设工程质量安全监督站,3205841903250101,320509202101250201,AJ320584120210742,2021-01-22,执法一中队201201（运东同里震泽）,2#车间、3#车间,苏州市吴江经济技术开发区富家路、乌金路交叉口西北侧,31.112728,120.717297,4742.38,房屋建筑
30,AJ320584-1,苏州市吴江区建设工程质量安全监督站,3205842009210103,320509202101260101,AJ320584120210738,2021-01-20,执法一中队201201（运东同里震泽）,新建厂房（平谦国际一期厂房工程 厂房K）,苏州市吴江经济技术开发区光明路1868号,31.116442,120.714501,4000,房屋建筑
31,AJ320584-1,苏州市吴江区建设工程质量安全监督站,3205842007230101,320509202101120401,AJ320584120210729,2021-01-12,执法一中队201201（运东同里震泽）,WJ-J-2020-014号地块商住项目三期商业,吴江区震泽镇镇南路南侧双泽路东侧,30.925478,120.536648,4581.72,房屋建筑
32,AJ320584-1,苏州市吴江区建设工程质量安全监督站,3205841911140102,320509202101210101,AJ320584120210721,2021-01-05,执法一中队201201（运东同里震泽）,",生产车间、配电房、消防水池,生产车间、配电房、消防水池",吴江经济技术开发区厍浜路,31.170000,120.630000,1500,房屋建筑
33,AJ320584-1,苏州市吴江区建设工程质量安全监督站,3205842009280102,320509202012310101,AJ320584120200704,2020-12-29,执法一中队201201（运东同里震泽）,年产电子电器外壳500万件、汽车零部件200万件、家电组件500万件,吴江经济技术开发区山湖西路305号,31.158293,120.677785,7020,房屋建筑
34,AJ320584-1,苏州市吴江区建设工程质量安全监督站,3205841911050102,320509202012310301,AJ320584120200693,2020-12-25,执法一中队201201（运东同里震泽）,欣安吴江新建厂房,苏州市吴江区叶港路333号,31.135801,120.712303,813,房屋建筑
35,AJ320584-1,苏州市吴江区建设工程质量安全监督站,3205842012040102,320509202012280501,AJ320584120200692,2020-12-25,执法一中队201201（运东同里震泽）,年产洁净板材100万平方米、空气净化设备50万台,吴江经济技术开发区山湖西路658号,31.159440,120.670599,3110,房屋建筑
36,AJ320584-1,苏州市吴江区建设工程质量安全监督站,3205841907270101,320509202012310201,AJ320584120200687,2020-12-25,执法一中队201201（运东同里震泽）,年产冲压件1296万件项目-车间三,吴江经济技术开发区吉市东路南侧,31.177415,120.697840,1299.16,房屋建筑
37,AJ320584-1,苏州市吴江区建设工程质量安全监督站,3205842003130102,320509202012310501,AJ320584120200682,2020-12-23,执法一中队201201（运东同里震泽）,年产阿拉伯头巾500万条，服装服饰99万件-车间七,吴江区震泽镇八都社区明港大道东侧,30.898143,120.465296,1100,房屋建筑
38,AJ320584-1,苏州市吴江区建设工程质量安全监督站,3205842006240102,320509202012290301,AJ320584120200667,2020-12-18,执法一中队201201（运东同里震泽）,年产金属制品5000吨项目（新建厂房）,江苏省苏州市吴江区震泽镇新乐村31组,30.905468,120.525783,750,房屋建筑
39,AJ320584-1,苏州市吴江区建设工程质量安全监督站,3205842008170101,320509202012180201,AJ320584120200665,2020-12-16,执法一中队201201（运东同里震泽）,吴江运东WJ-J-2020-012地块项目三期(1#楼--4#楼、8#楼--10#楼、14#楼、15#楼、19#楼、20#楼、24#--26#楼、（P2变电所、工具间）P3变电所、垃圾清洁房、门卫二、地下车库（三期））),东太湖大道北侧、庞山路东侧,31.170000,120.630000,22536,房屋建筑
40,AJ320584-1,苏州市吴江区建设工程质量安全监督站,3205842010120106,320509202012290201,AJ320584120200659,2020-12-14,执法一中队201201（运东同里震泽）,新建厂房38000平方米,吴江区八都镇龙降桥村七、八组,30.911966,120.492186,1500,房屋建筑
41,AJ320584-1,苏州市吴江区建设工程质量安全监督站,3205842007240101,320509202012170101,AJ320584120200658,2020-12-14,执法一中队201201（运东同里震泽）,年产连接器5000万套、接插器50亿只,山湖西路355号,31.158513,120.674789,1567.04,房屋建筑
42,AJ320584-1,苏州市吴江区建设工程质量安全监督站,3205842010130102,320509202012160401,AJ320584120200657,2020-12-14,执法一中队201201（运东同里震泽）,扩建厂房及辅房,吴江经济技术开发区同津大道新字路交叉口西北侧,31.130755,120.704227,670,房屋建筑
43,AJ320584-1,苏州市吴江区建设工程质量安全监督站,3205842010190101,320509202012150601,AJ320584120200649,2020-12-10,执法一中队201201（运东同里震泽）,年产庭园金属家具50万套生产技术改造项目（生产车间）,震泽民营开发区,30.933919,120.527054,2877,房屋建筑
44,AJ320584-1,苏州市吴江区建设工程质量安全监督站,3205842010230102,320509202012250201,AJ320584120200648,2020-12-09,执法一中队201201（运东同里震泽）,年产1200万片新型电子器件,吴江经济技术开发区同津大道与江兴路交界处,31.176179,120.704002,16550,房屋建筑
45,AJ320584-1,苏州市吴江区建设工程质量安全监督站,3205841804190101,320509202012070401,AJ320584120200644,2020-12-07,执法一中队201201（运东同里震泽）,"WJ-J-2017-041、WJ-J-2017-042地块住宅项目-11#,17#",吴江经济技术开发区江陵东路南侧、运东大道西侧,31.184343,120.668677,7266.97,房屋建筑
46,AJ320584-1,苏州市吴江区建设工程质量安全监督站,3205841804190101,320509202012020401,AJ320584120200635,2020-12-01,执法一中队201201（运东同里震泽）,"WJ-J-2017-041、WJ-J-2017-042地块住宅项目-1#,2#,3#,4#,5#,9#,10#,16#,22#,28#,29#,2#变配电,2#开闭所、3#变配电,6#变配电,2#门卫",吴江经济技术开发区江陵东路南侧、运东大道西侧,31.183706,120.668295,15573.34,房屋建筑
47,AJ320584-1,苏州市吴江区建设工程质量安全监督站,3205842007170101,320509202012030201,AJ320584120200634,2020-12-01,执法一中队201201（运东同里震泽）,"新建厂房项目-消防水池,汽车坡道",吴江经济技术开发区兴东路西侧,31.170000,120.630000,691.35,房屋建筑
48,AJ320584-1,苏州市吴江区建设工程质量安全监督站,3205842007170101,320509202012030101,AJ320584120200633,2020-12-01,执法一中队201201（运东同里震泽）,"新建厂房项目-16#车间,17#车间18#车间,19#仓库,20#仓库,C连廊,门卫四,门卫三,舞台",吴江经济技术开发区兴东路西侧,31.170000,120.630000,8293.31,房屋建筑
49,AJ320584-1,苏州市吴江区建设工程质量安全监督站,3205842002190103,320509202012030301,AJ320584120200631,2020-12-01,执法一中队201201（运东同里震泽）,苏州湾天空之城商服项目-2-4#,吴江区经济技术开发区庞金路东侧、云梨路南侧地块,31.163882,120.685767,14340.95,房屋建筑
50,AJ320584-1,苏州市吴江区建设工程质量安全监督站,3205842010090103,320509202012070201,AJ320584120200624,2020-11-27,执法一中队201201（运东同里震泽）,新建厂房15000平方米（不用于化工生产）项目（新建车间一),震泽镇工业开发区新乐路1158号,30.926012,120.522042,668,房屋建筑
51,AJ320584-1,苏州市吴江区建设工程质量安全监督站,3205842005200101,320509202012220201,AJ320584120200609,2020-11-23,执法一中队201201（运东同里震泽）,吴江华丰电子科技园区停车栋新建工程,吴江经济技术开发区吉市路168号,31.182296,120.701325,2350,房屋建筑
52,AJ320584-1,苏州市吴江区建设工程质量安全监督站,3205842009040101,320509202012020201,AJ320584120200599,2020-11-18,执法一中队201201（运东同里震泽）,年产纸制品20亿只项目（生产车间、仓库、连廊),苏州市吴江区震泽镇曹村村,30.903209,120.451219,2980,房屋建筑
53,AJ320584-1,苏州市吴江区建设工程质量安全监督站,3205842008200104,320509202011230301,AJ320584120200593,2020-11-12,执法一中队201201（运东同里震泽）,吴江开发区（同里镇）庞东路东侧栅桥路南侧地块（WJ-J-2020-019）一期S1#楼,吴江区庞东路东侧栅桥路南侧,31.170000,120.630000,200.37,房屋建筑
54,AJ320584-1,苏州市吴江区建设工程质量安全监督站,3205842007170101,320509202011180101,AJ320584120200592,2020-11-12,执法一中队201201（运东同里震泽）,"新建厂房项目-1#仓库,3#仓库,5#仓库,7#厂房,9#厂房,11#厂房,13#厂房,15#仓库,B连廊",吴江经济技术开发区兴瑞路,31.138403,120.698808,12300,房屋建筑
55,AJ320584-1,苏州市吴江区建设工程质量安全监督站,3205842009020101,320509202011190201,AJ320584120200587,2020-11-09,执法一中队201201（运东同里震泽）,年产服饰99万件-年产服饰99万件项目（车间一）,吴江区震泽镇朱家浜村,30.898515,120.485157,736,房屋建筑
56,AJ320584-1,苏州市吴江区建设工程质量安全监督站,3205842010120102,320509202011120303,AJ320584120200579,2020-11-05,执法一中队201201（运东同里震泽）,内部装修,江苏省苏州市吴江区同里镇环湖西路233号,31.160011,120.733246,46,装饰装修
57,AJ320584-1,苏州市吴江区建设工程质量安全监督站,3205842007200103,320509202011110101,AJ320584120200575,2020-11-05,执法一中队201201（运东同里震泽）,年产瓦楞纸箱3000万平方米（新建生产车间）,吴江经济技术开发区富土路111号,31.160255,120.717852,1495,房屋建筑
58,AJ320584-1,苏州市吴江区建设工程质量安全监督站,3205842009280103,320509202011100201,AJ320584120200573,2020-11-05,执法一中队201201（运东同里震泽）,增资建设年产伺服传动设备60000件厂房一、消控室及泵房水池,吴江经济技术开发区东河东侧、庞东路西侧,31.182273,120.692041,4455.88,房屋建筑
59,AJ320584-1,苏州市吴江区建设工程质量安全监督站,3205842008200104,320509202010300201,AJ320584120200562,2020-10-28,执法一中队201201（运东同里震泽）,"吴江开发区（同里镇）庞东路东侧栅桥路南侧地块（WJ-J-2020-019）一期33-44#,D1#,D2#,垃圾收集站,地库一",庞东路东侧栅桥路南侧,31.15044705473893,120.7001393616856,66694.14,房屋建筑
60,AJ320584-1,苏州市吴江区建设工程质量安全监督站,3205842008200104,320509202010260301,AJ320584120200551,2020-10-23,执法一中队201201（运东同里震泽）,吴江开发区（同里镇）庞东路东侧栅桥路南侧地块（WJ-J-2020-019）一期（14#、20#-32#楼、S2#、D3#、D4#、D7#、地库二）,吴江开发区庞东路东侧栅桥路南侧,31.150733,120.698128,83280.94,房屋建筑
61,AJ320584-1,苏州市吴江区建设工程质量安全监督站,3205841810110104,320509202010270101,AJ320584120200545,2020-10-22,执法一中队201201（运东同里震泽）,5#车间,吴江经济开发区甘泉西路807号,31.142759,120.674983,922,房屋建筑
62,AJ320584-1,苏州市吴江区建设工程质量安全监督站,3205842008170101,320509202010200201,AJ320584120200542,2020-10-20,执法一中队201201（运东同里震泽）,吴江运东WJ-J-2020-012地块项目二期(5-7#楼、11-13#楼、16-18#楼、21-23#楼、(P1#开关站、变电所)、P4#变电所、门卫一、地下车库）,东太湖大道北侧、庞山路东侧,31.145558,120.664018,24320,房屋建筑
63,AJ320584-1,苏州市吴江区建设工程质量安全监督站,3205842007230101,320509202010190201,AJ320584120200540,2020-10-19,执法一中队201201（运东同里震泽）,WJ-J-2020-014号地块商住项目（1#-18#、P1#、P2#、P3#、门卫、地下车库、垃圾房）,吴江区震泽镇镇南路南侧双泽路东侧,30.926647,120.535408,32497.17,房屋建筑
64,AJ320584-1,苏州市吴江区建设工程质量安全监督站,3205842007080102,320509202010160301,AJ320584120200517,2020-10-09,执法一中队201201（运东同里震泽）,年产塑料膜、塑料包装袋5000吨（厚度0.03mm以上），生物降解包装袋3000吨（厚度0.025mm以上）2#车间、3#宿舍,苏州市吴江经济技术开发区同里镇富士路89号,31.170000,120.630000,3580,房屋建筑
65,AJ320584-1,苏州市吴江区建设工程质量安全监督站,3205841908200103,320509202009300201,AJ320584120200502,2020-09-25,执法一中队201201（运东同里震泽）,年产使用环保型中压气体的绝缘开关柜及智能化成套设备2000件,吴江区吴江经济技术开发区叶明路208号,31.13695348229686,120.6902911811034,2520,房屋建筑
66,AJ320584-1,苏州市吴江区建设工程质量安全监督站,3205842007070102,320509202009230101,AJ320584120200478,2020-09-16,执法一中队201201（运东同里震泽）,吉市路幼儿园工程,吴江经济技术开发区吉市路与庞北路交叉口,31.180736,120.678949,8436.19,房屋建筑
67,AJ320584-1,苏州市吴江区建设工程质量安全监督站,3205841911110101,320509202009280101,AJ320584120200471,2020-09-14,执法一中队201201（运东同里震泽）,"年产有机高分子环保滤材100万平方米项目-车间一,仓库,综合楼,门卫一,地下喷淋水池及泵房",吴江区震泽镇朱家浜村,30.899693,120.499252,3280,房屋建筑
68,AJ320584-1,苏州市吴江区建设工程质量安全监督站,3205842007230101,320509202009100101,AJ320584120200464,2020-09-05,执法一中队201201（运东同里震泽）,WJ-J-2020-014号地块商住项目一期（19#）,吴江区震泽镇镇南路南侧双泽路东侧,30.927197,120.534762,100,房屋建筑
69,AJ320584-1,苏州市吴江区建设工程质量安全监督站,3205842004280101,320509202009040201,AJ320584120200451,2020-08-28,执法一中队201201（运东同里震泽）,年产高精密光电胶带5000万平方米、高精密电子零配件及3C产品配件5亿片,苏州市吴江区,31.155471,120.714641,7700,房屋建筑
70,AJ320584-1,苏州市吴江区建设工程质量安全监督站,3205842005260101,320509202008190401,AJ320584120200431,2020-08-19,执法一中队201201（运东同里震泽）,公司整体搬迁改造项目二标段,大兢路与同津大道交叉口东南侧地块,31.10307731364854,120.7119445016954,17711.01,房屋建筑
71,AJ320584-1,苏州市吴江区建设工程质量安全监督站,3205842005180102,320509202008250101,AJ320584120200419,2020-08-14,执法一中队201201（运东同里震泽）,吴江区同里镇区域性养老服务中心项目,新大桥路东地块2,31.158107,120.778108,7761.88,房屋建筑
72,AJ320584-1,苏州市吴江区建设工程质量安全监督站,3205842003200101,320509202009080901,AJ320584120200418,2020-08-13,执法一中队201201（运东同里震泽）,扩建厂房,吴江区经济技术开发区庞南路西侧，庞南路799号,31.156423,120.678444,1800,房屋建筑
73,AJ320584-1,苏州市吴江区建设工程质量安全监督站,3205841912310101,320509202007170101,AJ320584120200329,2020-07-07,执法一中队201201（运东同里震泽）,年产2万件海绵制品件项目,吴江开发区兴东路，南巷路交叉口西北侧地块,31.125847,120.700346,1386,房屋建筑
74,AJ320584-1,苏州市吴江区建设工程质量安全监督站,3205841903220103,320509202007240501,AJ320584120200298,2020-06-29,执法一中队201201（运东同里震泽）,新建厂房,吴江经济技术开发区富家路、乌金路交叉口西北侧地块,31.114336,120.719867,11000,房屋建筑
75,AJ320584-1,苏州市吴江区建设工程质量安全监督站,3205842005260101,320509202006270101,AJ320584120200290,2020-06-27,执法一中队201201（运东同里震泽）,公司整体搬迁改造项目一标段,大兢路与同津大道交叉口东南侧地块,31.103305,120.707227,23558.1,房屋建筑
76,AJ320584-1,苏州市吴江区建设工程质量安全监督站,3205842002190102,320509202008200301,AJ320584120200282,2020-06-22,执法一中队201201（运东同里震泽）,苏州市吴江区WJ-J-2019-033号地块建设项目工程总承包（34#）,吴江经济技术开发区庞山路东侧运东大道南侧,31.151057,120.672149,126,房屋建筑
77,AJ320584-1,苏州市吴江区建设工程质量安全监督站,3205842005070101,320509202006220101,AJ320584120200180,2020-06-15,执法一中队201201（运东同里震泽）,新建厂房25000平方米项目（1#厂房）,苏州市吴江区震泽镇双阳村民营开发区318国道南侧,30.933644,120.528065,3587.98,房屋建筑
78,AJ320584-1,苏州市吴江区建设工程质量安全监督站,3205841704200105,320509202006220201,AJ320584120200162,2020-06-05,执法一中队201201（运东同里震泽）,"双阳新农村安置房工程（34#楼,35#楼,生活泵房、地下消防水池及配电间）",吴江区震泽镇,30.929582,120.535858,2651.92,房屋建筑
79,AJ320584-1,苏州市吴江区建设工程质量安全监督站,3205841812210102,320509202006080401,AJ320584120200155,2020-05-28,执法一中队201201（运东同里震泽）,吴江区震泽镇震泽公园南侧藕河街北侧地块酒店项目,苏州市吴江区震泽镇藕河街,30.919588,120.506595,10888,房屋建筑
80,AJ320584-1,苏州市吴江区建设工程质量安全监督站,3205842002190102,320509202004300301,AJ320584120200122,2020-04-28,执法一中队201201（运东同里震泽）,WJ-J-2019-033号地块建设项目-1#~44#、M1#~M3#、地下车库,吴江经济技术开发区庞山路东侧运东大道南侧,31.151057,120.672149,71948.27,房屋建筑
81,AJ320584-1,苏州市吴江区建设工程质量安全监督站,3205841902250103,320509202004030201,AJ320584120200084,2020-03-31,执法一中队201201（运东同里震泽）,"改建车间及新建配套用房项目-地磅棚、地磅房,卸料棚,生产塔楼-1,生产塔楼-2,厂房-2",中国江苏省吴江经济开发区光明路1899号,31.11621974553787,120.7084221424454,5946.8,房屋建筑
82,AJ320584-1,苏州市吴江区建设工程质量安全监督站,3205841911060102,320509202004100101,AJ320584120200082,2020-03-31,执法一中队201201（运东同里震泽）,WJ-J-2019-013地块商服项目-会议中心大楼,吴江经济技术开发区运东大道东侧、云梨路北侧01地块，东至空地、南至行政中心、西至行政中心、北至大窑港,31.16887634954063,120.6724934508835,8736.86,房屋建筑
83,AJ320584-1,苏州市吴江区建设工程质量安全监督站,3205841807040104,320509202002170101,AJ320584120200022,2020-01-15,执法一中队201201（运东同里震泽）,厂区工程,吴江经济开发区吉市东路与新浜路交叉口东南侧,31.18106646635315,120.7040156977401,4580,房屋建筑
84,AJ320584-1,苏州市吴江区建设工程质量安全监督站,3205841704200102,320509202001200201,AJ320584120200001,2020-01-02,执法一中队201201（运东同里震泽）,塔影湾花苑安置小区一期二标段A区工程（6#、9#、17#、19#）,吴江区震泽镇塔影路南侧,30.909197,120.523713,6617.92,房屋建筑
85,AJ320584-1,苏州市吴江区建设工程质量安全监督站,3205841704200102,320509202001200301,AJ320584120190538,2019-12-31,执法一中队201201（运东同里震泽）,塔影湾花苑安置小区一期二标段B区工程（7#、10#及人防地下室）,吴江区震泽镇,30.909062,120.523183,7170.33,房屋建筑
86,AJ320584-1,苏州市吴江区建设工程质量安全监督站,3205841902270103,320509201912250301,AJ320584120190494,2019-12-12,执法一中队201201（运东同里震泽）,吴江经济技术开发区运河实验学校二标段工程,吴江经济技术开发区湖心西路南与庞山路东的交叉口,31.154371,120.675912,14607.76,房屋建筑
87,AJ320584-1,苏州市吴江区建设工程质量安全监督站,3205841805280101,320509202001150101,AJ320584120190442,2019-11-07,执法一中队201201（运东同里震泽）,上海城新天地家园C区,震泽镇八都八七公路东侧,30.914356,120.462512,5108,房屋建筑
88,AJ320584-1,苏州市吴江区建设工程质量安全监督站,3205841907220102,320509201910310101,AJ320584120190403,2019-10-25,执法一中队201201（运东同里震泽）,"年生产自动化设备800套项目（1#车间,2#车间,3#车间,4#车间、停车库,设备用房,消防控制室）",山湖西路庞山路交叉口东南侧,31.15864098492484,120.67658420832,31240.09,房屋建筑
89,AJ320584-1,苏州市吴江区建设工程质量安全监督站,3205841812110102,320509201909100401,AJ320584120190343,2019-09-10,执法一中队201201（运东同里震泽）,WJ-J-2018-037地块住宅项目-吴江开发区（同里镇）WJ-J-2018-037地块住宅项目,吴江开发区（同里镇）北至万宇路、东至运东大道、西至运河中路、南至万湖路,31.15271172244271,120.6687700658387,34893.18,房屋建筑
90,AJ320584-1,苏州市吴江区建设工程质量安全监督站,3205841806080102,320509201907310401,AJ320584120190286,2019-07-30,执法一中队201201（运东同里震泽）,"吴江敏华寝居项目-地下车库二,1#宿舍,2#宿舍,餐厅",吴江经济技术开发区兴瑞路北地块,31.14057323375193,120.6966781955011,2720,房屋建筑
91,AJ320584-1,苏州市吴江区建设工程质量安全监督站,3205841809040102,320509201904090401,AJ320584120190102,2019-03-11,执法一中队201201（运东同里震泽）,车间一、二、消防泵房、消防水池、门卫、食堂,吴江区经济技术开发区富家路与乌金路交叉口西北侧,31.170000,120.630000,3520,房屋建筑
92,AJ320584-1,苏州市吴江区建设工程质量安全监督站,3205841810150103,320509201903080301,AJ320584120190093,2019-03-06,执法一中队201201（运东同里震泽）,吴江经济技术开发区WJ-J-2018-018地块普通住宅项目（一期）,吴江经济技术开发区吉市西路、运东大道交叉口西北侧,31.18064410845376,120.6675621111781,65103.48,房屋建筑
93,AJ320584-1,苏州市吴江区建设工程质量安全监督站,3205841810240101,320509201901090101,AJ320584120190004,2019-01-04,执法一中队201201（运东同里震泽）,吴江经济技术开发区WJ-J-2018-019地块项目(1#、5#、7#、11#、12#、配电房4#),苏州市吴江开发区（同里镇）吉市西路、运河北路交叉口东北侧,31.18226716961837,120.6629068801429,22700,房屋建筑
94,AJ320584-1,苏州市吴江区建设工程质量安全监督站,3205841803190101,320509201901170101,AJ320584120180578,2018-12-28,执法一中队201201（运东同里震泽）,山湖花园九区动迁安置房五标段（13#、16#、21#物业、养老设施用房、28#配电间三、31#开闭所二、配电间五、地库3）,吴江经济技术开发区（同里镇）兴东路、山湖东路交叉口西北侧,31.16150944036146,120.7008945828749,12431.69,房屋建筑
95,AJ320584-1,苏州市吴江区建设工程质量安全监督站,3205841803190101,320509201901240101,AJ320584120180574,2018-12-27,执法一中队201201（运东同里震泽）,"山湖花园九区动迁安置房项目-6#,7#,22#社区管理用房,地库1",吴江经济技术开发区（同里镇）兴东路、山湖东路交叉口西北侧,31.170000,120.630000,10742.9,房屋建筑
96,AJ320584-1,苏州市吴江区建设工程质量安全监督站,3205841803190101,320509201901280501,AJ320584120180571,2018-12-26,执法一中队201201（运东同里震泽）,山湖花园九区动迁安置房二标段（3#、4#、8#、12#、开闭所、2栋配电房）,兴东路、山湖东路交叉口北侧,31.160182,120.698258,13294.79,房屋建筑
97,AJ320584-1,苏州市吴江区建设工程质量安全监督站,3205841803190101,320509201901250201,AJ320584120180568,2018-12-26,执法一中队201201（运东同里震泽）,山湖花园九区动迁安置房一标段（1#、2#、5#、9#、2栋门卫、配电房）,吴江经济技术开发区（同里镇）兴东路、山湖东路交叉口西北侧,31.16038103058163,120.7007120835285,13308.99,房屋建筑
98,AJ320584-1,苏州市吴江区建设工程质量安全监督站,3205841803190101,320509201903050201,AJ320584120180560,2018-12-21,执法一中队201201（运东同里震泽）,"山湖花园九区动迁安置房项目17#,18#,19#,20#,25#门卫,33#垃圾房,34#燃气调压室",吴江经济技术开发区（同里镇）兴东路、山湖东路交叉口西北侧,31.16205629670443,120.6972999882016,13194.69,房屋建筑
99,AJ320584-1,苏州市吴江区建设工程质量安全监督站,3205841803190101,320509201901170201,AJ320584120180557,2018-12-21,执法一中队201201（运东同里震泽）,山湖花园九区动迁安置房四标段（10#、11#、14#、15#、32#配电间六、地库2）,兴东路、山湖东路交叉口西北侧,31.16118672759044,120.7007652218287,14328.35,房屋建筑
100,AJ320584-1,苏州市吴江区建设工程质量安全监督站,3205841810240101,320509201812180201,AJ320584120180550,2018-12-14,执法一中队201201（运东同里震泽）,"吴江经济技术开发区WJ-J-2018-019地块项目(2#,3#,4#,8#,9#,10#,13#,14#,15#,16#住宅楼,门卫1,门卫2,配电房1#,开闭所、配电房2#，配电房3#,地库)",苏州市吴江开发区（同里镇）吉市西路、运河北路交叉口东北侧,31.18220885374971,120.6629036016924,25000,房屋建筑
101,AJ320584-1,苏州市吴江区建设工程质量安全监督站,3205841709300101,320509201812130201,AJ320584120180268,2018-12-13,执法一中队201201（运东同里震泽）,车间一、车间二、办公楼、研发车间、配电房、门卫、泵房,庞金路以东、湖心西路以北,31.156382,120.685940,2220,房屋建筑
102,AJ320584-1,苏州市吴江区建设工程质量安全监督站,3205841804190101,320509201806210101,AJ320584120180235,2018-06-14,执法一中队201201（运东同里震泽）,WJ-J-2017-041、042号地块一期（6-8#、12-15#、18-21#、23-27#、幼儿园、幼儿园门卫幼儿园专变、1#变配电开闭所、1#门卫、4#变配电、5#变配电、垃圾房、地下车库一）,吴江经济技术开发区江陵东路南侧、运东大道西侧,31.18360593213354,120.6690639158572,60000,房屋建筑
103,AJ320584-1,苏州市吴江区城市建设管理综合执法大队,3205841911060104,,AJ320584120200008,2020-01-06,执法二中队191209（江陵同里盛泽（非土建））,"“WJ-J-2019-019号”地块建设项目-4#,5#,6#,7#,8#,9#,10#,2#配电房,3#配电房,开关站,地下车库,1-2#门卫,3-4#门卫",苏州吴江半岛路南，环湖路东,31.205094,120.637833,71500,房屋建筑
104,AJ320584-1,苏州市吴江区城市建设管理综合执法大队,3205841911060104,,AJ320584120200141,2020-05-14,执法二中队191209（江陵同里盛泽（非土建））,“WJ-J-2019-019号”地块建设项目二期（总承包）,吴江开发区滨湖北路西侧、半岛路南侧、太湖东侧,31.210530,120.637070,44000,房屋建筑
105,AJ320584-1,苏州市吴江区城市建设管理综合执法大队,3205841911060104,,AJ320584120200012,2020-01-07,执法二中队191209（江陵同里盛泽（非土建））,"“WJ-J-2019-019号”地块建设项目-1#,2#,3#,地下车库二,1#配电房,4#服务型公寓,5#商业",吴江开发区太湖梢1号地块,31.21122302021254,120.6371578369575,39600,房屋建筑
106,AJ320584-1,苏州市吴江区城市建设管理综合执法大队,3205841910210101,,AJ320584120190483,2019-12-03,执法二中队191209（江陵同里盛泽（非土建））,WJ-J-2019-020地块一期（8#11#12#13#、P6#物业用房、P7#垃圾收集站、P8#开闭所、P9#配电房）,吴江经济技术开发区太湖梢2号地块,31.2077862092247,120.6408785215748,7338.98,房屋建筑
107,AJ320584-1,苏州市吴江区城市建设管理综合执法大队,3205841910210101,,AJ320584120190537,2019-12-27,执法二中队191209（江陵同里盛泽（非土建））,WJ-J-2019-020地块二期（7#、9#、10#、P10#3#配电房、地下车库二）,吴江经济技术开发区太湖梢2号地块,31.20766374475202,120.6410015979967,12421.32,房屋建筑
108,AJ320584-1,苏州市吴江区城市建设管理综合执法大队,3205841910210101,,AJ320584120190482,2019-12-03,执法二中队191209（江陵同里盛泽（非土建））,WJ-J-2019-020地块一期（2#5#住宅、地下车库一）,吴江经济技术开发区太湖梢2号地块,31.170000,120.630000,6513.97,房屋建筑
109,AJ320584-1,苏州市吴江区城市建设管理综合执法大队,3205841910210101,,AJ320584120190532,2019-12-27,执法二中队191209（江陵同里盛泽（非土建））,WJ-J-2019-020地块二期（1#、3#、4#、6#、P1#1#配电房、P2#门卫、P3#居家养老服务用房、P4#（物业管理用房、消防控制室、通信机房）、P5#2#配电房）,吴江经济技术开发区太湖梢2号地块,31.20490435850193,120.6420345167259,10432.49,房屋建筑
110,AJ320584-1,苏州市吴江区城市建设管理综合执法大队,3205841910210101,,AJ320584120200070,2020-03-26,执法二中队191209（江陵同里盛泽（非土建））,WJ-J-2019-020地块三期(1#楼～12#楼、P1#～P4#、(P5、6#)、地下车库),吴江经济技术开发区太湖梢2号地块,31.203650,120.638992,21991.3,房屋建筑
111,AJ320584-1,苏州市吴江区城市建设管理综合执法大队,3205841912270102,,AJ320584120200045,2020-02-27,执法二中队191209（江陵同里盛泽（非土建））,"新建厂房-新建厂房,门卫",益堂路北侧,31.112017,120.679622,2480,房屋建筑
112,AJ320584-1,苏州市吴江区城市建设管理综合执法大队,3205841911060103,,AJ320584120190504,2019-12-12,执法二中队191209（江陵同里盛泽（非土建））,WJ-J-2019-022地块项目,吴江开发区（同里镇）云龙西路北侧、杨中路东侧、益和路南侧,31.116531,120.664854,40000,房屋建筑
113,AJ320584-1,苏州市吴江区城市建设管理综合执法大队,3205841507210101,320509201809070601,AJ320584120180367,2018-08-20,执法二中队191209（江陵同里盛泽（非土建））,9#地块3#、4#、7#～12#楼、地下车库（02区）、2#、3#配电房、1#、2#门卫工程,吴江经济开发区江陵西路,31.18873936025605,120.6340409689555,19345,房屋建筑
114,AJ320584-1,苏州市吴江区城市建设管理综合执法大队,3205841703290103,,AJ320584120200559,2020-10-27,执法二中队191209（江陵同里盛泽（非土建））,"年产消防系统50000套项目-车间三,车间四,门卫",吴江经济技术开发区云龙西路北侧长安路东侧,31.115665,120.669516,2320,房屋建筑
115,AJ320584-1,苏州市吴江区城市建设管理综合执法大队,3205842009160101,,AJ320584120200544,2020-10-21,执法二中队191209（江陵同里盛泽（非土建））,年产单臂机器人模组60000套项目-五金加工车间,吴江经济技术开发区二二七复线西侧,31.135283,120.676658,1498,房屋建筑
116,AJ320584-1,苏州市吴江区城市建设管理综合执法大队,3205841911040103,,AJ320584120200571,2020-11-05,执法二中队191209（江陵同里盛泽（非土建））,年产钢丝帘布裁断机22台,龙桥路东侧、益胜路南侧；白龙桥村、益胜路183号,31.113381,120.675373,1000,房屋建筑
117,AJ320584-1,苏州市吴江区城市建设管理综合执法大队,3205841811150101,,AJ320584120200072,2020-03-26,执法二中队191209（江陵同里盛泽（非土建））,吴江高级中学改扩建工程-综合教学楼工程,吴江区松陵镇中山北路801号,31.18027993016241,120.6546939077752,1907.87,房屋建筑
118,AJ320584-1,苏州市吴江区城市建设管理综合执法大队,3205841507210101,320509201809070501,AJ320584120180366,2018-08-20,执法二中队191209（江陵同里盛泽（非土建））,明珠城9#地块1#、2#、5#、6#楼、地下车库（01区）、4#、5#配电房、3#门卫及垃圾房,江陵西路北、鲈乡北路西,31.18970454726666,120.6385056310335,12913,房屋建筑
119,AJ320584-1,苏州市吴江区城市建设管理综合执法大队,3205841811150101,,AJ320584120200421,2020-08-14,执法二中队191209（江陵同里盛泽（非土建））,吴江高级中学改扩建工程—（南地块）艺体馆、食堂和（北地块）国际教育院土建工程,吴江区松陵镇中山北路801号,31.180497,120.652161,7349.53,房屋建筑
120,AJ320584-1,苏州市吴江区城市建设管理综合执法大队,3205842004290101,,AJ320584120200375,2020-07-27,执法二中队191209（江陵同里盛泽（非土建））,年产通用设备100台（科创园1#、2#厂房）,云创路西侧、长安路东侧,31.116986,120.670541,3981.4,房屋建筑
121,AJ320584-1,苏州市吴江区城市建设管理综合执法大队,3205841806260103,,AJ320584120200619,2020-11-25,执法二中队191209（江陵同里盛泽（非土建））,"创新性治疗用单克隆抗体产业化-车间二,车间三,仓库一,仓库二,设备用房（污水处理站房）",吴江经济技术开发区云创路以东、龙桥路以西,31.170000,120.630000,8453.12,房屋建筑
122,AJ320584-1,苏州市吴江区城市建设管理综合执法大队,3205841806260103,320509201912130101,AJ320584120190493,2019-12-09,执法二中队191209（江陵同里盛泽（非土建））,"创新性治疗用单克隆抗体产业化-车间四,危险品库,设备用房（动力中心）,地下室,职工宿舍,门卫",龙桥路西、云创路东,31.131802,120.673047,9331.97,房屋建筑
123,AJ320584-1,苏州市吴江区城市建设管理综合执法大队,3205841912110101,,AJ320584120200503,2020-09-27,执法一中队191209（八坼横扇平望）,年组装汽车配件15000台套项目（车间一、门卫及地下消防水池）,吴江区太湖新城友谊工业区,31.102521,120.678441,2315.94,房屋建筑
124,AJ320584-1,苏州市吴江区城市建设管理综合执法大队,3205841604270101,,AJ320584120200337,2020-07-10,执法一中队191209（八坼横扇平望）,锅炉房,八坼友谊工业园,31.096974,120.678113,263.16,房屋建筑
125,AJ320584-1,苏州市吴江区城市建设管理综合执法大队,3205842006080101,,AJ320584120200286,2020-06-24,执法一中队191209（八坼横扇平望）,太湖新城WJ-J-2018-034地块商服项目（亨通苏州湾文化旅游项目二期）,吴江区太湖新城旅游度假区规划内湖东侧,31.094957,120.607154,7228,房屋建筑
126,AJ320584-1,苏州市吴江区城市建设管理综合执法大队,3205841810110102,,AJ320584120200166,2020-06-09,执法一中队191209（八坼横扇平望）,太湖新城（松陵镇）胜信路南侧行船河路西侧03地块商服项目,吴江区太湖新城胜信路南侧行船河路西侧,31.096984,120.654711,4289.94,房屋建筑
127,AJ320584-1,苏州市吴江区城市建设管理综合执法大队,3205841910230101,,AJ320584120200092,2020-04-08,执法一中队191209（八坼横扇平望）,吴江区生活垃圾焚烧发电扩容建设项目（生活垃圾焚烧厂二期）,苏州市吴江区松陵镇太湖新城汤华村（苏同黎公路西侧）,31.081707,120.724367,32600,房屋建筑
128,AJ320584-1,苏州市吴江区城市建设管理综合执法大队,3205841807310102,,AJ320584120200055,2020-03-17,执法一中队191209（八坼横扇平望）,苏州中学苏州湾校区土建施工总承包工程,吴江区太湖新城，中山南路以东、海沿漕以北、行船河以西、规划支路以南,31.084739,120.651279,55928.8,房屋建筑
129,AJ320584-1,苏州市吴江区城市建设管理综合执法大队,3205841910160101,,AJ320584120190535,2019-12-27,执法一中队191209（八坼横扇平望）,苏州长三角示范区产学研合作园（一期项目）1#综合楼、2#动力房,吴江区227省道西侧、莘七公路北侧,31.070935,120.672903,7526.75,房屋建筑
130,AJ320584-1,苏州市吴江区城市建设管理综合执法大队,3205841711200101,320509201803270201,AJ320584120180065,2018-02-11,执法一中队191209（八坼横扇平望）,太湖新城（松陵镇）WJ-J-2016-046地块商业用房项目-太湖新城（松陵镇）WJ-J-2016-046地块商业用房,太湖新城（松陵镇）旅游度假区01地块，王焰南边，省道西边,31.085340,120.593439,16000,房屋建筑
131,AJ320584-1,苏州市吴江区建设工程质量安全监督站,3205842001030102,320509202012160101,AJ320584120200655,2020-12-14,执法二中队201201（运西桃源七都八坼横扇）,新建厂房（车间六、配电间）,吴江区松陵镇八坼友谊村6组,31.096132,120.670150,2900,房屋建筑
132,AJ320584-1,苏州市吴江区建设工程质量安全监督站,3205842009270101,320509202012070101,AJ320584120200629,2020-12-01,执法二中队201201（运西桃源七都八坼横扇）,"年产超滤设备1万套项目-1#办公楼,2#厂房,3#厂房",苏州市吴江横扇街道菀坪创业路西侧南新路北侧,31.060460,120.612097,6000,房屋建筑
133,AJ320584-1,苏州市吴江区城市建设管理综合执法大队,3205842005250102,,AJ320584120200381,2020-07-28,执法四中队191209（汾湖震泽七都）,1#车间,苏州市吴江区七都镇吴越路西侧,30.921013,120.396135,772.8,房屋建筑
134,AJ320584-1,苏州市吴江区城市建设管理综合执法大队,3205841904170103,,AJ320584120200105,2020-04-17,执法四中队191209（汾湖震泽七都）,年产新型高分子建筑防水卷材1亿平方米（聚乙烯丙纶类复合防水卷材、S型聚氯乙烯防水卷材除外),七都镇,30.940052,120.385409,11511.3,房屋建筑
135,AJ320584-1,苏州市吴江区城市建设管理综合执法大队,3205841812120102,320509201907310301,AJ320584120190247,2019-07-01,执法四中队191209（汾湖震泽七都）,WJ-J-2017-015地块商服项目,七都镇沿湖路南侧、原庙港自来水厂地块,30.997596,120.467371,3800,房屋建筑
136,AJ320584-1,苏州市吴江区城市建设管理综合执法大队,3205841909180101,,AJ320584120200293,2020-06-28,执法四中队191209（汾湖震泽七都）,新建人才公寓16300平方米,吴江区七都镇七都大道南,30.948469,120.387143,3708.34,房屋建筑
137,AJ320584-1,苏州市吴江区城市建设管理综合执法大队,3205841912270101,,AJ320584120200561,2020-10-28,执法四中队191209（汾湖震泽七都）,新建生产车间14400平方米项目（车间、消防水池）,吴江区七都镇庙港开发区,30.994109,120.486415,2080,房屋建筑
138,AJ320584-1,苏州市吴江区城市建设管理综合执法大队,3205842006110102,,AJ320584120200473,2020-09-14,执法四中队191209（汾湖震泽七都）,年产服装98万件-车间一,苏州市吴江区七都镇庙港开弦弓村,30.986370,120.499290,2620,房屋建筑
139,AJ320584-1,苏州市吴江区城市建设管理综合执法大队,3205842004240101,,AJ320584120200378,2020-07-28,执法四中队191209（汾湖震泽七都）,新建车间5100平方米项目(车间一、车间二、车间三）,苏州市吴江区七都镇临湖经济区创立路178号,30.947124,120.413362,705,房屋建筑
140,AJ320584-1,苏州市吴江区城市建设管理综合执法大队,3205842006190101,,AJ320584120200468,2020-09-09,执法四中队191209（汾湖震泽七都）,年产电力管50万米、通信管50万米、超细电子导线100吨项目（车间一）,吴江区七都镇建设路南侧,30.938713,120.398673,1220,房屋建筑
141,AJ320584-1,苏州市吴江区城市建设管理综合执法大队,3205842009150103,,AJ320584120200597,2020-11-17,执法四中队191209（汾湖震泽七都）,新建车间11500平方米（新建车间3#）,吴江区七都镇临湖经济区中区,30.944758,120.415896,828.84,房屋建筑
142,AJ320584-1,苏州市吴江区城市建设管理综合执法大队,3205841909180102,,AJ320584120200576,2020-11-05,执法四中队191209（汾湖震泽七都）,年产铜丝300吨、电线电缆30万公里项目（车间三、车间四、地下泵房）,吴江区七都镇建设路南侧,30.938711,120.398783,3418,房屋建筑
143,AJ320584-1,苏州市吴江区建设工程质量安全监督站,3205842010120105,320509202012150501,AJ320584120200643,2020-12-04,执法二中队201201（运西桃源七都八坼横扇）,扩建厂房3600平方米-车间三,吴江区七都镇双塔桥村,31.15455,120.632753,471.8,房屋建筑
144,AJ320584-1,苏州市吴江区城市建设管理综合执法大队,3205842003270101,,AJ320584120200146,2020-05-26,执法三中队191209（松陵桃源）,WJ-J-2019-034地块住宅项目,吴江区桃源镇商城路南侧地块,30.857510,120.535184,37690,房屋建筑
145,AJ320584-1,苏州市吴江区城市建设管理综合执法大队,3205841910250101,,AJ320584120200600,2020-11-18,执法三中队191209（松陵桃源）,年产压光机300套-接建车间,吴江区桃源镇齐心西街38号,30.809730,120.489415,450,房屋建筑
146,AJ320584-1,苏州市吴江区城市建设管理综合执法大队,3205841910250101,,AJ320584120200315,2020-07-03,执法三中队191209（松陵桃源）,"年产压光机300套项目（车间,办公楼）",吴江区桃源镇齐心西街38号,31.170000,120.630000,370,房屋建筑
147,AJ320584-1,苏州市吴江区城市建设管理综合执法大队,3205841904160102,,AJ320584120200096,2020-04-14,执法三中队191209（松陵桃源）,桃源镇敬老院养老服务中心,吴江区桃源镇麻溪路165号,30.852914,120.536913,2601.07,房屋建筑
148,AJ320584-1,苏州市吴江区城市建设管理综合执法大队,3205841909170102,,AJ320584120200152,2020-05-25,执法三中队191209（松陵桃源）,"福煜人家-18号楼,22号楼,生活水泵房-消防水泵房,门卫-监控室",苏州市吴江区桃源镇铜罗社区迎春路东、镇中路南,30.845768,120.542101,3000,房屋建筑
149,AJ320584-1,苏州市吴江区城市建设管理综合执法大队,3205842004260102,,AJ320584120200440,2020-08-25,执法三中队191209（松陵桃源）,"新建厂房33000平方米（车间一,车间二,地下泵房）,车间二,地下泵房",江苏省苏州市吴江区桃源镇南和经济开发区,30.795868,120.511585,4258,房屋建筑
150,AJ320584-1,苏州市吴江区建设工程质量安全监督站,3205841808300103,,T20190142,2020-12-03,执法二中队201201（运西桃源七都八坼横扇）,吴江区桃源镇WJ-J-2018-024地块商住项目3#楼,"吴江区桃源镇东至苏震桃公路,南至华天路,西至华盛大道,北至空地",31.170000,120.630000,191,房屋建筑
151,AJ320584-1,苏州市吴江区建设工程质量安全监督站,3205842007220101,,AJ320584120200689,2020-12-25,执法二中队201201（运西桃源七都八坼横扇）,新建厂区工程,吴江区七都镇七都大道北侧,30.955909,120.415736,2745.64,房屋建筑
152,AJ320584-1,苏州市吴江区建设工程质量安全监督站,3205842007220101,,AJ320584120200688,2020-12-25,执法二中队201201（运西桃源七都八坼横扇）,车间一,吴江区七都镇七都大道北侧,30.955724,120.415628,654.36,房屋建筑
153,AJ320584-1,苏州市吴江区建设工程质量安全监督站,3205842011250101,,AJ320584120200677,2020-12-22,执法二中队201201（运西桃源七都八坼横扇）,假捻丝、加弹丝技术改造项目,苏州市吴江区桃源镇富乡村,30.863714,120.537214,4051.16,房屋建筑
154,AJ320584-1,苏州市吴江区建设工程质量安全监督站,3205842010120107,,AJ320584120200674,2020-12-22,执法二中队201201（运西桃源七都八坼横扇）,新建车间9000平方米项目（拟建车间四）,吴江区七都镇心田湾,30.933406,120.392715,698.47,房屋建筑
155,AJ320584-1,苏州市吴江区建设工程质量安全监督站,3205841909050103,320509202012250103,AJ320584120200671,2020-12-21,执法二中队201201（运西桃源七都八坼横扇）,万宝至马达（江苏）有限公司内部装修工程1#宿舍楼装修项目,苏州市吴江经济技术开发区柳胥路100号,31.170000,120.630000,2175,装饰装修
156,AJ320584-1,苏州市吴江区建设工程质量安全监督站,3205841910160101,320509202012240301,AJ320584120200661,2020-12-15,执法二中队201201（运西桃源七都八坼横扇）,"苏州长三角示范区产学研合作园（一期项目）-3#学院楼,4#学院楼,5#行政楼,6#食堂,7#体育馆,8#学生宿舍,9#学生宿舍,10#学生宿舍,11#学生宿舍,12#教师公寓,地下车库",吴江区 227 省道西侧、莘七公路北侧,31.075260,120.670064,71709,房屋建筑
157,AJ320584-1,苏州市吴江区建设工程质量安全监督站,3205842010090101,320509202012300601,AJ320584120200700,2020-12-29,执法二中队201201（运西桃源七都八坼横扇）,中山北路西侧江陵西路南侧地块（逸品阁二期）4#-8#楼、配电房、二期地下汽车库,吴江经济开发区中山北路西侧、江陵西路南侧,31.183838,120.654155,21000,房屋建筑
158,AJ320584-1,苏州市吴江区建设工程质量安全监督站,3205842010230101,320509202012300301,AJ320584120200694,2020-12-28,执法二中队201201（运西桃源七都八坼横扇）,年产组装用铝合金防撞梁10万套及组装车用底盘护板10万套项目(新建车间(四)),吴江区七都镇港东开发区,30.944384,120.417888,778.87,房屋建筑
159,AJ320584-1,苏州市吴江区建设工程质量安全监督站,3205841804100101,,AJ320584120200660,2020-12-14,执法二中队201201（运西桃源七都八坼横扇）,年产经编织品9000吨、组装经编设备80台项目-车间二,太湖新城菀南工业区南新路,31.058274,120.603737,563.58,房屋建筑
160,AJ320584-1,苏州市吴江区建设工程质量安全监督站,3205841708210104,320509202101220101,AJ320584120210737,2021-01-20,执法二中队201201（运西桃源七都八坼横扇）,年产模具（轮胎、自行车胎、摩托车胎手工刻花硫化模具除外）600套,苏州市吴江经济技术开发区五方路北侧鼎新东侧,31.170000,120.630000,800,房屋建筑
161,AJ320584-1,苏州市吴江区建设工程质量安全监督站,3205842009180101,,AJ320584120210776,2021-02-25,执法二中队201201（运西桃源七都八坼横扇）,自动化生产装备技术改造项目-自动化生产装备技术改造项目,苏州市吴江经济技术开发区亨通路88号,31.170000,120.630000,725,房屋建筑
162,AJ320584-1,苏州市吴江区建设工程质量安全监督站,3205842012280102,320509202103120201,AJ320584120210804,2021-03-12,执法二中队201201（运西桃源七都八坼横扇）,WJ-J-2020-023地块商服用房项目,桃源镇原印染厂,30.766921,120.509591,38430,房屋建筑
163,AJ320584-1,苏州市吴江区建设工程质量安全监督站,3205841912190102,,AJ320584120210803,2021-03-12,执法二中队201201（运西桃源七都八坼横扇）,新建厂房项目,太湖新城友谊工业区鑫康路,31.092460,120.673837,1580,房屋建筑
164,AJ320584-1,苏州市吴江区建设工程质量安全监督站,3205842006230102,,AJ320584120210797,2021-03-11,执法二中队201201（运西桃源七都八坼横扇）,柳胥村商贸中心工程,苏州市吴江经济技术开发区九龙路东侧,31.194024,120.661674,608.37,房屋建筑
165,AJ320584-1,苏州市吴江区建设工程质量安全监督站,3205842101070104,320509202103120101,AJ320584120210796,2021-03-11,执法二中队201201（运西桃源七都八坼横扇）,"WJ-J-2020-032号地块住宅项目-1#,2#,3#,4#,5#,6#,7#,P1配电房,P2配电房,养老用房,地下车库",苏州市吴江区花港路南侧，地铁花港站西侧,31.170000,120.630000,32432.51,房屋建筑
166,AJ320584-1,苏州市吴江区建设工程质量安全监督站,3205842011240103,,AJ320584120210793,2021-03-10,执法二中队201201（运西桃源七都八坼横扇）,内部装修,吴江经济技术开发区联杨路599号2号楼一层大厅，二三层,31.132648,120.665461,180,装饰装修
167,AJ320584-1,苏州市吴江区建设工程质量安全监督站,3205842101110101,,AJ320584120210791,2021-03-10,执法二中队201201（运西桃源七都八坼横扇）,年产新能源动力电池智能干燥设备100套-车间二,吴江区经济开发区益胜路北侧,31.113829,120.677143,1300,房屋建筑
168,AJ320584-1,苏州市吴江区建设工程质量安全监督站,3205842101280101,320509202103100103,AJ320584120210787,2021-03-08,执法二中队201201（运西桃源七都八坼横扇）,内部装修,吴江经济开发区龙桥路758号2号楼3层,31.123224,120.676550,980,装饰装修
169,AJ320584-1,苏州市吴江区建设工程质量安全监督站,3205842006110101,,AJ320584120210811,2021-03-17,执法二中队201201（运西桃源七都八坼横扇）,电梯智能制造项目（车间一、办公楼、地下泵房及消防水池）,七都镇七都大道北侧,30.956900,120.411856,4678,房屋建筑
170,AJ320584-1,苏州市吴江区建设工程质量安全监督站,3205842012100101,,AJ320584120210809,2021-03-16,执法二中队201201（运西桃源七都八坼横扇）,厂房扩建项目,吴江经济开发区柳胥路479号,31.190433,120.655678,2612,房屋建筑
171,AJ320584-1,苏州市吴江区建设工程质量安全监督站,3205842009150102,,AJ320584120210807,2021-03-15,执法二中队201201（运西桃源七都八坼横扇）,新建厂房8800平方米项目（新建厂房）,苏州市吴江区桃源镇瑾下浜村12组,30.854088,120.505859,1000,房屋建筑
172,AJ320584-1,苏州市吴江区建设工程质量安全监督站,3205842010160101,320509202103170301,AJ320584120210790,2021-03-09,执法二中队201201（运西桃源七都八坼横扇）,"吴江区桃源幼儿园工程-教学楼,门卫室",吴江区桃源镇戴家浜村,30.810590,120.494289,3534.97,房屋建筑
173,AJ320584-1,苏州市吴江区建设工程质量安全监督站,3205842101120101,320509202103310101,AJ320584120210838,2021-03-31,执法二中队201201（运西桃源七都八坼横扇）,年组装电气成套柜5000台、工业机器人1500台项目,吴江经济技术开发区龙桥路东侧、芦荡路南侧地块,31.119680,120.675108,11000,房屋建筑
174,AJ320584-1,苏州市吴江区建设工程质量安全监督站,3205842011050101,,AJ320584120210836,2021-03-30,执法二中队201201（运西桃源七都八坼横扇）,新建车间4380平方米-新建车间4380平方米,江苏省苏州市吴江区,31.170000,120.630000,980,房屋建筑
175,AJ320584-1,苏州市吴江区建设工程质量安全监督站,3205842006190102,,AJ320584120210833,2021-03-29,执法二中队201201（运西桃源七都八坼横扇）,新建车间8000平方米-新建车间8000平方米（车间二）,苏州市吴江区七都镇临湖经济区,30.949549,120.420084,840,房屋建筑
176,AJ320584-1,苏州市吴江区建设工程质量安全监督站,3205842012150102,320509202103240201,AJ320584120210823,2021-03-24,执法二中队201201（运西桃源七都八坼横扇）,新建厂房项目（新建车间）,吴江区桃源镇东方大道,30.809369,120.510561,900,房屋建筑
177,AJ320584-1,苏州市吴江区建设工程质量安全监督站,3205842012280102,320509202103240301,AJ320584120210822,2021-03-24,执法二中队201201（运西桃源七都八坼横扇）,WJ-J-2020-022地块商服用房项目,吴江区桃源镇原水泥厂地块,30.767131,120.511487,21620,房屋建筑
178,AJ320584-1,苏州市吴江区建设工程质量安全监督站,3205842007030103,320509202103300101,AJ320584120210816,2021-03-23,执法二中队201201（运西桃源七都八坼横扇）,年产自动化智能分拣装置100套、分拣设备配件3000套（新建车间二）,江苏省苏州市吴江区七都镇庙港太平桥村,30.987074,120.488014,600,房屋建筑
179,AJ320584-1,苏州市吴江区建设工程质量安全监督站,3205841910210101,320509202104070201,AJ320584120210845,2021-04-06,执法二中队201201（运西桃源七都八坼横扇）,"“WJ-J-2019-020”地块建设项目-酒店A区,酒店B区,酒店C区",吴江经济技术开发区太湖梢2号地块,31.203395,120.641534,5697.85,房屋建筑
180,AJ320584-1,苏州市吴江区建设工程质量安全监督站,3205842101140102,320509202103310401,AJ320584120210839,2021-03-31,执法二中队201201（运西桃源七都八坼横扇）,新建车间及辅房12000平方米（新建办公楼、仓库、消防泵房及地下消防水池）项目,吴江区七都镇人民路6号,30.950803,120.393009,1200,房屋建筑
181,AJ320584-1,苏州市吴江区建设工程质量安全监督站,3205842008180103,,AJ320584120210868,2021-04-20,执法二中队201201（运西桃源七都八坼横扇）,"年产168万件汽车零部件-车间,配电房",益胜路北侧,31.114660,120.671924,890,房屋建筑
182,AJ320584-1,苏州市吴江区建设工程质量安全监督站,3205842009210101,,AJ320584120210829,2021-03-25,执法二中队201201（运西桃源七都八坼横扇）,内部装修,苏州市吴江区七都镇新村一路南（吴溇路49号）,31.170000,120.630000,20,装饰装修
183,AJ320584-1,苏州市吴江区建设工程质量安全监督站,3205842101270101,,AJ320584120210824,2021-03-24,执法二中队201201（运西桃源七都八坼横扇）,内部装修-吴江舒家大院装饰工程,苏州市吴江区经济技术开发区联杨路599号,31.170000,120.630000,90.6,装饰装修
184,AJ320584-1,苏州市吴江区建设工程质量安全监督站,3205842011020101,320509202101280103,AJ320584120210740,2021-01-21,执法二中队201201（运西桃源七都八坼横扇）,内部装修,吴江区松陵镇鲈乡北路675号,31.179427,120.645640,104.42,装饰装修
185,AJ320584-1,苏州市吴江区建设工程质量安全监督站,3205842010270101,320509202105200101,AJ320584120210912,2021-05-12,执法二中队201201（运西桃源七都八坼横扇）,年产电梯轿厢1000套项目（4#厂房）,桃源镇新和村,31.154164,120.631895,598,房屋建筑
186,AJ320584-1,苏州市吴江区建设工程质量安全监督站,3205841904170103,320509202105260101,AJ320584120210932,2021-05-26,执法二中队201201（运西桃源七都八坼横扇）,年产新型高分子建筑防水卷材1亿平方米（聚乙烯丙纶类复合防水卷材、S型聚氯乙烯防水卷材除外）项目（4#厂房、5#厂房、门卫一）,江苏省苏州市吴江区七都镇亨通大道888号,31.154164,120.631895,2438,房屋建筑
187,AJ320584-1,苏州市吴江区建设工程质量安全监督站,3205842102040101,320509202105120303,AJ320584120210903,2021-05-07,执法二中队201201（运西桃源七都八坼横扇）,内部装修,松陵镇吴江经济开发区华鸿路东侧、古塘路北侧,31.206638,120.649700,30,装饰装修
188,AJ320584-1,苏州市吴江区建设工程质量安全监督站,3205842103090103,320509202104230203,AJ320584120210857,2021-04-12,执法二中队201201（运西桃源七都八坼横扇）,内部装修,吴江经济技术开发区联杨路139号吴江科创园7号楼1层,31.170000,120.630000,50,装饰装修
189,AJ320584-1,苏州市吴江区建设工程质量安全监督站,3205842103300101,320509202106090203,AJ320584120210946,2021-06-01,执法二中队201201（运西桃源七都八坼横扇）,内部装修,苏州市吴江区横扇镇宛坪社区同心路88号伟业·锦绣江南18幢,31.075280,120.608800,70,装饰装修
190,AJ320584-1,苏州市吴江区建设工程质量安全监督站,3205842101180101,320509202106110103,AJ320584120210936,2021-05-27,执法二中队201201（运西桃源七都八坼横扇）,内部装修,吴江区芦荡路228号,31.121203,120.673613,1644.27,装饰装修
191,AJ320584-1,苏州市吴江区建设工程质量安全监督站,3205842103220101,320509202105280501,AJ320584120210933,2021-05-26,执法二中队201201（运西桃源七都八坼横扇）,新建厂房5650平方米-6#丁类车间,苏州市吴江区七都镇七都大道169号,30.947482,120.383451,1560,房屋建筑
192,AJ320584-1,苏州市吴江区建设工程质量安全监督站,3205842102230101,320509202105280601,AJ320584120210928,2021-05-25,执法二中队201201（运西桃源七都八坼横扇）,年产五金配件50万件（新建车间）项目,桃源镇开阳村,30.845845,120.572140,1578.55,房屋建筑
193,AJ320584-1,苏州市吴江区建设工程质量安全监督站,3205842104090101,320509202107220301,AJ320584120210982,2021-06-22,执法二中队201201（运西桃源七都八坼横扇）,年产环保专用设备20万根,苏州市吴江区桃源镇大德村小桥头,30.856602,120.521530,5400,房屋建筑
194,AJ320584-1,苏州市吴江区建设工程质量安全监督站,3205842103020101,320509202106230303,AJ320584120210977,2021-06-18,执法二中队201201（运西桃源七都八坼横扇）,内部装修-苏州中广华夏影院管理有限公司内部装修,苏州吴江经济技术开发区联杨路599号1号楼4层,31.170000,120.630000,88,装饰装修
195,AJ320584-1,苏州市吴江区建设工程质量安全监督站,3205842102010101,320509202106170501,AJ320584120210974,2021-06-16,执法二中队201201（运西桃源七都八坼横扇）,新建厂房项目（厂房一、厂房二、门卫）,吴江区桃源镇富乡村,30.874590,120.538166,7809.65,房屋建筑
196,AJ320584-1,苏州市吴江区建设工程质量安全监督站,3205842105310101,320509202106170303,AJ320584120210973,2021-06-15,执法二中队201201（运西桃源七都八坼横扇）,内部装修,苏州市吴江区江陵街道联杨路599号第三幢第三层303-03-01铺,31.132095,120.665133,38,装饰装修
197,AJ320584-1,苏州市吴江区建设工程质量安全监督站,3205842103150101,320509202106220103,AJ320584120210970,2021-06-15,执法二中队201201（运西桃源七都八坼横扇）,内部装修-国讯新基物联（江苏）有限公司内部装修,江陵街道云创路229号2号楼四层,31.127397,120.671241,70,装饰装修
198,AJ320584-1,苏州市吴江区建设工程质量安全监督站,3205841605170101,320509202106230101,AJ320584120210969,2021-06-15,执法二中队201201（运西桃源七都八坼横扇）,年产光纤预制棒800吨项目（110KV变配电房）,亨通路古塘路交叉口北侧，交通北路168号,31.205430,120.660623,923.72,房屋建筑
199,AJ320584-1,苏州市吴江区建设工程质量安全监督站,3205842005140104,,AJ320584120210966,2021-06-11,执法二中队201201（运西桃源七都八坼横扇）,新建车间,吴江区桃源镇海润路399#,30.823457,120.496323,166,房屋建筑
200,AJ320584-1,苏州市吴江区建设工程质量安全监督站,3205842005140106,320509202106220201,AJ320584120210964,2021-06-11,执法二中队201201（运西桃源七都八坼横扇）,"厂区工程-3#生产车间,宿舍",吴江经济技术开发区龙友路88号,31.123618,120.677637,3518,房屋建筑
201,AJ320584-1,苏州市吴江区建设工程质量安全监督站,3205842104160101,320509202106170401,AJ320584120210954,2021-06-07,执法二中队201201（运西桃源七都八坼横扇）,年组装纺织机1000台-车间(消防水池),苏州市吴江区七都镇庙港联强村,30.999271,120.491629,1500,房屋建筑
202,AJ320584-1,苏州市吴江区建设工程质量安全监督站,3205842104190102,320509202107090203,AJ320584120211004,2021-07-01,执法二中队201201（运西桃源七都八坼横扇）,内部装修,苏州市吴江区江陵街道长板路1号天城花园商业1幢商铺109一至三层局部,31.138393,120.670064,45,装饰装修
203,AJ320584-1,苏州市吴江区建设工程质量安全监督站,3205842104270101,320509202107120103,AJ320584120211003,2021-07-01,执法二中队201201（运西桃源七都八坼横扇）,内部装修,吴江区松陵镇八坼环镇北路,31.081628,120.683737,58,装饰装修
204,AJ320584-1,苏州市吴江区建设工程质量安全监督站,3205842106020101,320509202107160203,AJ320584120211000,2021-06-30,执法二中队201201（运西桃源七都八坼横扇）,内部装修,吴江经济技术开发区省道227西侧青禾创客空间1层及3层办公区,31.132436,120.672283,93.97,装饰装修
205,AJ320584-1,苏州市吴江区建设工程质量安全监督站,3205842102030102,320509202107270101,AJ320584120211435,2021-07-26,执法二中队201201（运西桃源七都八坼横扇）,年产智能垃圾分类设备（系统 ）1000套、固体废弃物处理设备（系 统）1000套、工业机器人1万套、垃圾分类大数据系统100套、节能环保设备 （系统）100套,吴江经济技术开发区五方路北侧、龙桥路东侧地块,31.107997,120.671035,12000,房屋建筑
206,AJ320584-1,苏州市吴江区建设工程质量安全监督站,3205842012240103,,AJ320584120211427,2021-07-21,执法二中队201201（运西桃源七都八坼横扇）,新建厂房8000平方米,吴江区桃源镇远欣路1799号,30.849232,120.494504,598,房屋建筑
207,AJ320584-1,苏州市吴江区建设工程质量安全监督站,3205842104080102,320509202107220103,AJ320584120211026,2021-07-13,执法二中队201201（运西桃源七都八坼横扇）,内部装修,吴江经济开发区交通路668号,31.170000,120.630000,188,装饰装修
208,AJ320584-1,苏州市吴江区建设工程质量安全监督站,3205841912260101,320509202107210301,AJ320584120211416,2021-07-16,执法三中队201201（松陵）,金域华府东侧幼儿园项目总承包工程,吴江区高新路北、长安路东侧,31.148577,120.661158,3568.37,房屋建筑
209,AJ320584-1,苏州市吴江区建设工程质量安全监督站,3205842102190101,320509202107210201,AJ320584120210995,2021-06-29,执法三中队201201（松陵）,苏州湾（吴江）外国语学校扩建项目,吴江区松陵镇龙河路1500号,31.170000,120.630000,1700,房屋建筑
210,AJ320584-1,苏州市吴江区建设工程质量安全监督站,3205842007200101,320509202107010201,AJ320584120210997,2021-06-29,执法三中队201201（松陵）,WJ-J-2020-004号地块科研及商服建设项目（三期）,苏州市吴江区开平路南、春兰街西,31.139529,120.610201,57035.43,房屋建筑
211,AJ320584-1,苏州市吴江区建设工程质量安全监督站,3205842003260101,320509202106030101,AJ320584120210944,2021-06-01,执法三中队201201（松陵）,红星美凯龙住宅西南角幼儿园工程,吴江区夏蓉街以东、东太湖大道以北,31.137903,120.618857,6510.76,房屋建筑
212,AJ320584-1,苏州市吴江区建设工程质量安全监督站,3205842007200101,320509202104160101,AJ320584120210863,2021-04-15,执法三中队201201（松陵）,WJ-J-2020-004号地块科研及商服建设项目（四期）,苏州市吴江区东太湖度假区（太湖新城）苏州湾大道东侧开平路南侧地块,31.170000,120.630000,45690.35,房屋建筑
213,AJ320584-1,苏州市吴江区建设工程质量安全监督站,3205842007200101,,AJ320584120210859,2021-04-13,执法三中队201201（松陵）,WJ-J-2020-004号地块科研及商服建设项目（二期）,苏州市吴江区东太湖度假区（太湖新城）苏州湾大道东侧开平路南侧地库,31.141245,120.608539,46865.24,房屋建筑
214,AJ320584-1,苏州市吴江区建设工程质量安全监督站,3205841612190101,320509202104140103,AJ320584120210837,2021-03-31,执法三中队201201（松陵）,建设苏州湾文化中心配套工程-苏州湾文化中心配套工程—内装修工程,太湖新城湖景街东，映山街西,31.139282,120.595936,1160.25,装饰装修
215,AJ320584-1,苏州市吴江区建设工程质量安全监督站,3205841612190101,,AJ320584120210781,2021-03-03,执法三中队201201（松陵）,苏州湾文化中心配套工程精品建筑工程,太湖新城湖景街东，映山街西,31.141342,120.594719,217.32,房屋建筑
216,AJ320584-1,苏州市吴江区建设工程质量安全监督站,3205842007230102,320509202103020201,AJ320584120210757,2021-02-05,执法三中队201201（松陵）,顺丰创智产业基地项目,江苏省吴江东太湖生态旅游度假区（太湖新城）尖田路,31.111398,120.655894,43500,房屋建筑
217,AJ320584-1,苏州市吴江区建设工程质量安全监督站,3205842007200101,320509202102080501,AJ320584120210753,2021-02-04,执法三中队201201（松陵）,WJ-J-2020-004号地块科研及商服建设项目（一期）,苏州市吴江区东太湖度假区（太湖新城）苏州湾大道东侧开平路南侧地块,31.170000,120.630000,56435.43,房屋建筑
218,AJ320584-1,苏州市吴江区建设工程质量安全监督站,3205842002280101,320509202101140201,AJ320584120210728,2021-01-12,执法三中队201201（松陵）,吴江区实验初级中学改扩建工程-土建总包,吴江区太湖新城吴模路1855号,31.151915,120.637829,2665.08,房屋建筑
219,AJ320584-1,苏州市吴江区建设工程质量安全监督站,3205842001080101,320509202101050301,AJ320584120200714,2020-12-31,执法三中队201201（松陵）,东太湖度假区（太湖新城）开平路北侧君悦路东侧商务用房项目,吴江区开平路北侧君悦路东侧,31.144838,120.660210,22468.02,房屋建筑
220,AJ320584-1,苏州市吴江区建设工程质量安全监督站,3205841910100102,320509202012230201,AJ320584120200672,2020-12-21,执法三中队201201（松陵）,新建研发中心大楼,太湖新城云龙路复线南侧支路三西侧,31.113818,120.654775,7998.89,房屋建筑
221,AJ320584-1,苏州市吴江区建设工程质量安全监督站,3205842007060101,320509202012180101,AJ320584120200664,2020-12-16,执法三中队201201（松陵）,"尚源智慧科技大厦项目-1#研发中心一,2#研发中心二,3#院士工作站/实验楼,4#设备间,地下车库",苏州市吴江区太湖新城经一路西侧云龙路复线南侧,31.113149,120.654465,14000,房屋建筑
222,AJ320584-1,苏州市吴江区建设工程质量安全监督站,3205842008070101,320509202012070301,AJ320584120200637,2020-12-02,执法三中队201201（松陵）,苏州吴江WJ-J-2020-017号地块项目,苏州市吴江区太湖新城（松陵镇）秋枫街东侧规七路北侧地块,31.157516,120.614091,58524.72,房屋建筑
223,AJ320584-1,苏州市吴江区建设工程质量安全监督站,3205842008200103,320509202011050201,AJ320584120200574,2020-11-05,执法三中队201201（松陵）,太湖新城规七路南侧夏蓉街西侧WJ-J-2020-018号地块住宅项目（1#-39#、M1#、M2#、P1#、P2#、地下车库）,东太湖度假区（太湖新城）规七路南侧、夏蓉街西侧,31.154731,120.612357,59753.38,房屋建筑
224,AJ320584-1,苏州市吴江区建设工程质量安全监督站,3205841601280103,320509202010290201,AJ320584120200558,2020-10-27,执法三中队201201（松陵）,吴江市滨湖新城A区A4-4地块商服用房项目,吴江区太湖新城东太湖大道11666号,31.139158,120.593816,10635.02,房屋建筑
225,AJ320584-1,苏州市吴江区建设工程质量安全监督站,3205842007140103,320509202010290401,AJ320584120200557,2020-10-27,执法三中队201201（松陵）,东太湖旅游度假区WJ-J-2020-013地块商住及科研用房项目（13#楼）,吴江区开平路南侧、风清街东侧、纬四路北侧、苏州湾大道西侧,31.139421,120.604596,22138.43,房屋建筑
226,AJ320584-1,苏州市吴江区建设工程质量安全监督站,3205842002270102,320509202011020101,AJ320584120200556,2020-10-27,执法三中队201201（松陵）,东太湖旅游度假区（太湖新城）水秀街东侧高新路南侧地块科教、商服用房项目,吴江区高新路南侧、水秀街东侧,31.170000,120.630000,12600,房屋建筑
227,AJ320584-1,苏州市吴江区建设工程质量安全监督站,3205842007140103,320509202010150301,AJ320584120200518,2020-10-09,执法三中队201201（松陵）,东太湖旅游度假区WJ-J-2020-013地块商住及科研用房项目（1#-12#楼、地下车库）,东太湖度假区（太湖新城）开平路南侧苏州湾大道西侧,31.134823,120.593818,40138.79,房屋建筑
228,AJ320584-1,苏州市吴江区建设工程质量安全监督站,3205842007140102,320509202009250101,AJ320584120200501,2020-09-25,执法三中队201201（松陵）,WJ-2020-009号地块商住及公共管理与公共服务用房项目（07-03-33、07-03-34）二标段,秋枫街东侧笠泽西路南侧,31.160035,120.622823,9225.12,房屋建筑
229,AJ320584-1,苏州市吴江区建设工程质量安全监督站,3205842007140102,320509202009170301,AJ320584120200476,2020-09-16,执法三中队201201（松陵）,WJ-2020-009号地块商住及公共管理与公共服务用房项目（07-03-33、07-03-34）一标段,东太湖度假区（太湖新城）秋枫街东侧笠泽西路南侧地块,31.15906,120.62205,28266.16,房屋建筑
230,AJ320584-1,苏州市吴江区建设工程质量安全监督站,3205841802260102,320509202009160201,AJ320584120200458,2020-09-02,执法三中队201201（松陵）,吴江区城市绿轴工程项目,吴江区太湖新城映山街以东、风清街以西,31.170000,120.630000,10578.9,房屋建筑
231,AJ320584-1,苏州市吴江区建设工程质量安全监督站,3205842003130101,320509202009070301,AJ320584120200447,2020-08-26,执法三中队201201（松陵）,WJ-J-2019-028地块住宅项目,苏州市吴江区秋枫街以东、规七路以北、规划冬梅街以西,31.153148,120.614199,48234.72,房屋建筑
232,AJ320584-1,苏州市吴江区建设工程质量安全监督站,3205841912300101,320509202008130301,AJ320584120200396,2020-08-04,执法三中队201201（松陵）,WJ-J-2019-017、WJ-J-2019-018地块住宅项目二期工程,苏州市吴江区太湖新城（松陵镇）规八路西侧体育路北侧,31.153685,120.61169,18530.5,房屋建筑
233,AJ320584-1,苏州市吴江区建设工程质量安全监督站,3205841912300101,320509202008130201,AJ320584120200395,2020-08-04,执法三中队201201（松陵）,WJ-J-2019-017、WJ-J-2019-018地块住宅项目一期工程,苏州市吴江区太湖新城（松陵镇）规八路西侧体育路北侧,31.151614,120.611207,22521.09,房屋建筑
234,AJ320584-1,苏州市吴江区建设工程质量安全监督站,3205841904300101,320509202007240601,AJ320584120200367,2020-07-24,执法三中队201201（松陵）,WJ-J-2019-001地块住宅项目施工总承包工程,吴江区太湖新城，东至冬梅街，南至体育路，西至秋枫街，北至顾家荡河,31.152981,120.622185,71421.4,房屋建筑
235,AJ320584-1,苏州市吴江区建设工程质量安全监督站,3205842007130101,320509202007240701,AJ320584120200362,2020-07-22,执法三中队201201（松陵）,WJ-J-2020-008地块普通住宅项目（11#、12#、地库1）,东太湖度假区（太湖新城）秋枫街东侧庞杨路南侧,31.170000,120.630000,2594,房屋建筑
236,AJ320584-1,苏州市吴江区建设工程质量安全监督站,3205842007130101,320509202008120301,AJ320584120200361,2020-07-22,执法三中队201201（松陵）,WJ-J-2020-008地块普通住宅项目（1#-10#、13#-16#、地库2）,东太湖度假区（太湖新城）秋枫街东侧庞杨路南侧,31.170000,120.630000,14370.3,房屋建筑
237,AJ320584-1,苏州市吴江区建设工程质量安全监督站,3205842003200103,320509202007170301,AJ320584120200352,2020-07-16,执法三中队201201（松陵）,WJ-J-2018-013号地块项目二标段,苏州吴江秋枫街以东，芦荡路以南,31.120453,120.626290,30300.13,房屋建筑
238,AJ320584-1,苏州市吴江区建设工程质量安全监督站,3205842003200103,320509202007170201,AJ320584120200350,2020-07-16,执法三中队201201（松陵）,WJ-J-2018-013号地块项目一标段,吴江区太湖新城秋枫街东侧，芦荡路南侧,31.121467,120.625307,32750.27,房屋建筑
239,AJ320584-1,苏州市吴江区建设工程质量安全监督站,3205841808300102,320509202007080101,AJ320584120200318,2020-07-03,执法三中队201201（松陵）,吴江区太湖新城水秀小学总包,太湖新城风清街东侧、新二路南侧,31.145104,120.603469,12576.99,房屋建筑
240,AJ320584-1,苏州市吴江区建设工程质量安全监督站,3205841705240108,320509202010280101,AJ320584120200302,2020-06-30,执法三中队201201（松陵）,太湖新城高新路WJ-J-2015-042地块商服项目-太湖新城高新路WJ-J-2015-042地块商服项目,吴江区太湖新城原康复医院地块,31.145664,120.644582,20850.49,房屋建筑
241,AJ320584-1,苏州市吴江区建设工程质量安全监督站,3205841612190101,320509202006180204,AJ320584120200163,2020-06-08,执法三中队201201（松陵）,"建设苏州湾文化中心配套工程-苏州湾文化中心配套安装工程,苏州湾文化中心配套安装工程",太湖新城湖景街东，映山街西。,31.170000,120.630000,2282.2,装饰装修
242,AJ320584-1,苏州市吴江区建设工程质量安全监督站,3205841907040101,320509202006040201,AJ320584120200158,2020-06-02,执法三中队201201（松陵）,吴江区城南家园三期西侧（高层部分）定销公寓房工程-北区,吴江区太湖新城,4.9E-324,4.9E-324,45088.88,房屋建筑
243,AJ320584-1,苏州市吴江区建设工程质量安全监督站,3205841907040101,320509202006040101,AJ320584120200157,2020-06-02,执法三中队201201（松陵）,吴江区城南家园三期西侧（高层部分）定销公寓房工程-南区,吴江区太湖新城,31.092630,120.650931,44637.43,房屋建筑
244,AJ320584-1,苏州市吴江区建设工程质量安全监督站,3205841807020101,320509202005270101,AJ320584120200145,2020-05-26,执法三中队201201（松陵）,苏州湾大数据智慧产业基地项目（二标段一期）,夏蓉街南侧纬一路西侧,31.103462,120.616238,12969.5,房屋建筑
245,AJ320584-1,苏州市吴江区建设工程质量安全监督站,3205841607210105,320509202005120201,AJ320584120200134,2020-05-09,执法三中队201201（松陵）,松陵镇云龙路南中山南路西项目二期（朗诗新广场）（2.1期）,吴江区松陵镇,31.113456,120.649320,20300,房屋建筑
246,AJ320584-1,苏州市吴江区建设工程质量安全监督站,3205842002260101,320509202005110301,AJ320584120200130,2020-05-08,执法三中队201201（松陵）,"WJ-J-2019-029地块住宅项目-1#楼,2#楼,3#楼,4#楼,5#楼,6#楼,7#楼,8#楼,9#楼,10#楼,11#公共变电所,12#公共变电所、开关站,13#垃圾站,地下汽车库",东太湖度假区（太湖新城）冬梅街西侧，江厍西路北侧,31.155165,120.6215,40447,房屋建筑
247,AJ320584-1,苏州市吴江区建设工程质量安全监督站,3205841809050103,320509202004260201,AJ320584120200107,2020-04-23,执法三中队201201（松陵）,江苏有线吴江分公司综合业务大楼项目,开平路以南，春兰街以东，夏蓉街以西,31.170000,120.630000,14686.54,房屋建筑
248,AJ320584-1,苏州市吴江区建设工程质量安全监督站,3205841903150101,320509202004140301,AJ320584120200091,2020-04-08,执法三中队201201（松陵）,新建科教研发中心（不用于生产）,江苏省苏州市吴江区云龙路复线南侧红星美凯龙东侧,31.11398156048913,120.6537673697757,5000.8,房屋建筑
249,AJ320584-1,苏州市吴江区建设工程质量安全监督站,3205841812260104,320509202005140203,AJ320584120200089,2020-04-07,执法三中队201201（松陵）,内部装修及外立面装修-苏州恒力中心公寓（B塔C1、C2户型、D1户型（12-22层）、B塔首层大堂及公区室内）装饰工程,江苏省苏州市吴江区湖景街以东，开平路以北,31.170000,120.630000,4599.24,装饰装修
250,AJ320584-1,苏州市吴江区建设工程质量安全监督站,3205841910090102,320509202003250101,AJ320584120200065,2020-03-23,执法三中队201201（松陵）,"吴江WJ-J-2019-015地块住宅项目-5#楼,6#楼,8#楼,9#楼,10#楼,11#楼,7#楼,门卫1,垃圾房",吴江区太湖新城、苏州河路东、江厍路北,4.9E-324,4.9E-324,11532.37,房屋建筑
251,AJ320584-1,苏州市吴江区建设工程质量安全监督站,3205841605090103,320509202003190101,AJ320584120200061,2020-03-16,执法三中队201201（松陵）,太湖城南地块W1、W2、W39、W46-W48、W51,吴江区太湖新城,31.170000,120.630000,1672.9,房屋建筑
252,AJ320584-1,苏州市吴江区建设工程质量安全监督站,3205841910090102,320509202003170101,AJ320584120200060,2020-03-12,执法三中队201201（松陵）,"吴江WJ-J-2019-015地块住宅项目-1#楼,2#楼,3#楼,4#楼,开闭所,配电房,门卫2,人防地库,非人防地库",吴江区太湖新城、苏州河路东、江厍路北,31.155778,120.628491,22647,房屋建筑
253,AJ320584-1,苏州市吴江区建设工程质量安全监督站,3205842001090101,320509202002270201,AJ320584120200044,2020-02-27,执法三中队201201（松陵）,太湖新城（松陵镇）秋枫街西侧江厍西路北侧地块住宅项目,吴江太湖新城秋枫街西侧江厍西路北侧,31.204352,120.638696,70000,房屋建筑
254,AJ320584-1,苏州市吴江区建设工程质量安全监督站,3205841808300101,320509202001220301,AJ320584120200031,2020-01-17,执法三中队201201（松陵）,"吴江区太湖新城水秀幼儿园工程-幼儿园,门卫",吴江区太湖新城风清街东侧、新二路北侧,31.145846,120.603460,5346.29,房屋建筑
255,AJ320584-1,苏州市吴江区建设工程质量安全监督站,3205841806200101,320509201912190301,AJ320584120190514,2019-12-17,执法三中队201201（松陵）,步步高互联网软件园（高标准工业厂房）二标段,苏州市吴江区夏蓉路西五方路北,31.109744,120.616328,11098.57,房屋建筑
256,AJ320584-1,苏州市吴江区建设工程质量安全监督站,3205841612190101,320509202003020201,AJ320584120190444,2019-11-07,执法三中队201201（松陵）,建设苏州湾文化中心配套工程-苏州湾文化中心配套工程,太湖新城湖景街东，映山街西,31.170000,120.630000,13778.54,房屋建筑
257,AJ320584-1,苏州市吴江区建设工程质量安全监督站,3205841809290101,320509201911010101,AJ320584120190405,2019-10-30,执法三中队201201（松陵）,吴江区太湖新城永鼎医院东侧动迁安置房工程,吴江区太湖新城高新路以北，祁连路以东,31.147932,120.643568,5562.25,房屋建筑
258,AJ320584-1,苏州市吴江区建设工程质量安全监督站,3205841806200101,320509201910210101,AJ320584120190386,2019-10-12,执法三中队201201（松陵）,步步高互联网软件园（高标准工业厂房）一标段,夏蓉街西侧，五方路北侧交叉口,31.108886,120.617262,20091.39,房屋建筑
259,AJ320584-1,苏州市吴江区建设工程质量安全监督站,3205841901180101,320509201912200301,AJ320584120190374,2019-09-29,执法三中队201201（松陵）,吴江区太湖新城核心区春江路东侧A2-2地块商服项目-吴江金茂中心,苏州市吴江区东太湖大道北、水秀街东,31.170000,120.630000,18100,房屋建筑
260,AJ320584-1,苏州市吴江区建设工程质量安全监督站,3205841607200101,320509201909230201,AJ320584120190297,2019-09-20,执法三中队201201（松陵）,吴江科汇大厦,吴江区公共卫生中心东南侧地块,31.145170,120.658764,9356,房屋建筑
261,AJ320584-1,苏州市吴江区建设工程质量安全监督站,3205841803140101,320509201908080201,AJ320584120190288,2019-08-07,执法三中队201201（松陵）,吴江太湖新城轨交4号线松陵大道综合交通枢纽项目土建工程,吴江区太湖新城松陵大道西、东太湖大道北,31.170000,120.630000,117999.98,房屋建筑
262,AJ320584-1,苏州市吴江区建设工程质量安全监督站,3205841608040101,320509201908070201,AJ320584120190266,2019-08-07,执法三中队201201（松陵）,吴江太湖新城总部经济8号地块商服项目,苏州太湖新城吴江总部经济8号地块,31.137875,120.601497,11000,房屋建筑
263,AJ320584-1,苏州市吴江区建设工程质量安全监督站,3205841809210101,320509201907030201,AJ320584120190236,2019-06-21,执法三中队201201（松陵）,吴江区太湖新城高新村北侧动迁安置房工程,吴江太湖新城,31.150818,120.656168,11899.49,房屋建筑
264,AJ320584-1,苏州市吴江区建设工程质量安全监督站,3205841704270102,320509201904150301,AJ320584120190121,2019-04-10,执法三中队201201（松陵）,太湖新城吴江联杨农贸市场南侧邻里中心地块施工总承包,东至锚锭路，南至中心路，西至鱼港路，北至思贤路,31.125837,120.637450,25064.89,房屋建筑
265,AJ320584-1,苏州市吴江区建设工程质量安全监督站,3205841605090103,320509201901280401,AJ320584120190046,2019-01-22,执法三中队201201（松陵）,太湖城南地块西区（三期）一标段,吴江区太湖新城,31.170000,120.630000,17646.6,房屋建筑
266,AJ320584-1,苏州市吴江区建设工程质量安全监督站,3205841804160101,320509201811090601,AJ320584120180496,2018-11-05,执法三中队201201（松陵）,WJ-J-2016-025号地块（吴江太湖新城亚洲碳谷项目）,吴江太湖新城高新路南、水秀街西、湖景街东,31.142862,120.593912,48000,房屋建筑
267,AJ320584-1,苏州市吴江区建设工程质量安全监督站,3205841710200101,320509201810180801,AJ320584120180456,2018-10-17,执法三中队201201（松陵）,苏州吴江智慧城市产业化基地二期,江苏省苏州市吴江区鲈乡南路以西，吴江大道以北,31.093681,120.638965,81104.32,房屋建筑
268,AJ320584-1,苏州市吴江区建设工程质量安全监督站,3205841511060103,320509201808310601,AJ320584120180387,2018-08-30,执法三中队201201（松陵）,吴江滨湖新城B1地块商服、住宅用房项目-吴江太湖新城核心区B1地块超高层项目(副楼),江苏省吴江市开平路南侧、滨湖路东侧,31.170000,120.630000,12069.9,房屋建筑
269,AJ320584-1,苏州市吴江区建设工程质量安全监督站,3205841804100102,320509201809270201,AJ320584120180355,2018-08-15,执法三中队201201（松陵）,太湖新城总部经济7号地块商服用房项目,吴江区太湖新城总部经济水秀街（水秀街以东、规划支路以北）,31.139297,120.599956,32000,房屋建筑
270,AJ320584-1,苏州市吴江区建设工程质量安全监督站,3205841603230102,320509201807310401,FJ20170034,2018-07-25,执法三中队201201（松陵）,太湖新城吴江总部经济5号地块商服用房-（不含桩基）太湖新城吴江总部经济5号地块,苏州市吴江太湖新城开平路附近绿轴步行街,0.000724,0.000575,11300,房屋建筑
271,AJ320584-1,苏州市吴江区建设工程质量安全监督站,3205841601070102,320509201807310501,AJ320584120180277,2018-07-12,执法三中队201201（松陵）,苏州湾景苑西区三期（5#、9#、地下室三A、三C）,苏州市吴江区高新路北、风清街西,31.170000,120.630000,48050,房屋建筑
272,AJ320584-1,苏州市吴江区建设工程质量安全监督站,3205841601070102,320509201807310601,AJ320584120180272,2018-07-11,执法三中队201201（松陵）,"苏州湾景苑西区二-2期（3#、地下室二-2B（含人防））,地下室二-2B",苏州市吴江区高新路北、风清街西,31.148496,120.600635,22734,房屋建筑
273,AJ320584-1,苏州市吴江区建设工程质量安全监督站,3205841702200103,320509201806210601,AJ320584120180229,2018-06-12,执法三中队201201（松陵）,"东太湖大道南侧、夏蓉街西侧地块普通住宅项目-6#,7#,11#,5#,12#,13#,17#,18#,19#,22#,23#,25#,26#,27#,28#,29#,34#,35#,36#,40#,4",东太湖大道南侧、夏蓉街西侧地块,31.170000,120.630000,18888.81,房屋建筑
274,AJ320584-1,苏州市吴江区建设工程质量安全监督站,3205841711130101,320509201806190301,AJ320584120180222,2018-06-06,执法三中队201201（松陵）,太湖新城（松陵镇）春江路东侧A8-1地块商服项目-太湖新城（松陵镇）春江路东侧A8-1地块商服项目,苏州市吴江区滨湖新城总部经济A8-1地块,31.170000,120.630000,33720,房屋建筑
275,AJ320584-1,苏州市吴江区建设工程质量安全监督站,3205841710250102,320509201806260101,AJ320584120180208,2018-05-28,执法三中队201201（松陵）,启迪苏州吴江科技信息产业基地项目 7#、15#、16#、地库,苏州市吴江区太湖新城鲈乡南路东侧、五方路南侧,31.170000,120.630000,30853.08,房屋建筑
276,AJ320584-1,苏州市吴江区建设工程质量安全监督站,3205841601280107,320509201804250201,AJ320584120180133,2018-04-16,执法三中队201201（松陵）,吴江滨湖新城A区A7-2地块项目,吴江区太湖新城,31.170000,120.630000,13702.09,房屋建筑
277,AJ320584-1,苏州市吴江区建设工程质量安全监督站,3205841702200103,320509201805290101,AJ320584120180117,2018-04-09,执法三中队201201（松陵）,"东太湖大道南侧、夏蓉街西侧地块普通住宅项目-49#,50#,51#,52#,53#,54#,55#,56#,57#,58#,59#,60#,106#,107#,108#,109#,110#,111#,",东太湖大道南侧、夏蓉街西侧地块,31.170000,120.630000,22273.75,房屋建筑
278,AJ320584-1,苏州市吴江区建设工程质量安全监督站,3205841702200103,320509201805280401,AJ320584120180116,2018-04-09,执法三中队201201（松陵）,"东太湖大道南侧、夏蓉街西侧地块普通住宅项目-61#,62#,63#,64#,65#,66#,67#,68#,69#,70#,71#,72#,73#,74#,75#,76#,77#,78#,79#,80",东太湖大道南侧、夏蓉街西侧地块,31.170000,120.630000,11692.63,房屋建筑
279,AJ320584-1,苏州市吴江区建设工程质量安全监督站,,,FJ20160111,2017-05-27,执法三中队201201（松陵）,吴江太湖新城核心区B1地块超高层项目（塔楼部分）,江苏省苏州市吴江区开平路以南、映山街以西,,,119449.38,房屋建筑
280,AJ320584-1,苏州市吴江区建设工程质量安全监督站,3205842104210101,320509202107310201,AJ320584120211446,2021-07-29,执法四中队201201（汾湖平望）,"年产功能性聚酯薄膜、功能性塑料80万吨（B地块-1）-（BOPET车间一,BOPET车间三）",厍星路东侧、新黎路北侧,31.170000,120.630000,12511.62,房屋建筑
281,AJ320584-1,苏州市吴江区建设工程质量安全监督站,3205842104210101,320509202107310101,AJ320584120211443,2021-07-29,执法四中队201201（汾湖平望）,年产功能性聚酯薄膜、功能性塑料80万吨（A地块）-BOPET车间五,厍星路东侧、新黎路北侧,31.170000,120.630000,6300,房屋建筑
282,AJ320584-1,苏州市吴江区建设工程质量安全监督站,3205842106080104,320509202107190101,AJ320584120211418,2021-07-16,执法四中队201201（汾湖平望）,平望镇西新街及周边老旧小区改造工程,平望镇平运路、莺脰湖、西新街、荷花池、黄秧墩等,30.979628,120.647068,1041.12,装饰装修
283,AJ320584-1,苏州市吴江区建设工程质量安全监督站,3205842007030102,320509202107230101,AJ320584120211412,2021-07-14,执法四中队201201（汾湖平望）,年产镍钛支架4万件项目（1#医疗器械车间）,苏州吴江汾湖国道路2688号,31.016116,120.802879,4330,房屋建筑
284,AJ320584-1,苏州市吴江区建设工程质量安全监督站,3205842105120101,320509202107120201,AJ320584120211017,2021-07-08,执法四中队201201（汾湖平望）,"年产鸡精调味料2.6万吨-新建车间八,辅房",苏州吴江区黎里镇金家坝金莘路3099号,31.080182,120.790554,5795.5,房屋建筑
285,AJ320584-1,苏州市吴江区建设工程质量安全监督站,3205842104210101,320509202107210101,AJ320584120211012,2021-07-07,执法四中队201201（汾湖平望）,年产功能性聚酯薄膜、功能性塑料80万吨（A地块）（辅助车间一、辅助车间二、辅助车间三、辅助车间四、综合动力站、热媒MCC、总降站、污水处理站、热媒泵房）,厍星路东侧、新黎路北侧,31.068475,120.783646,10642.85,房屋建筑
286,AJ320584-1,苏州市吴江区建设工程质量安全监督站,3205842005210101,320509202107080201,AJ320584120211011,2021-07-06,执法四中队201201（汾湖平望）,新建车间及仓库40000平方米（仅用于出租）-新建4#车间,平望镇联合村,30.980743,120.577826,2300,房屋建筑
287,AJ320584-1,苏州市吴江区建设工程质量安全监督站,3205842101110102,320509202107070101,AJ320584120211009,2021-07-06,执法四中队201201（汾湖平望）,扩建雨棚工程,苏州市吴江区黎里镇长葑荡路66号,31.013958,120.789036,262,房屋建筑
288,AJ320584-1,苏州市吴江区建设工程质量安全监督站,3205842104220105,320509202107120303,AJ320584120211005,2021-07-01,执法四中队201201（汾湖平望）,内部装修,黎里镇临沪大道1518号,31.170000,120.630000,700,装饰装修
289,AJ320584-1,苏州市吴江区建设工程质量安全监督站,3205842104210101,320509202107060101,AJ320584120210993,2021-06-29,执法四中队201201（汾湖平望）,年产功能性聚酯薄膜、功能性塑料80万吨 (B地块-1)（BOPET车间二、BOPET车间四）,厍星路东侧、新黎路北侧,31.045560,120.793429,12500,房屋建筑
290,AJ320584-1,苏州市吴江区建设工程质量安全监督站,3205842104209901,320509202107010101,AJ320584120210990,2021-06-28,执法四中队201201（汾湖平望）,平望镇教师新村老旧小区改造工程,吴江区平望镇,30.983350,120.658497,1366.38,装饰装修
291,AJ320584-1,苏州市吴江区建设工程质量安全监督站,3205842104090103,320509202106250104,AJ320584120210989,2021-06-25,执法四中队201201（汾湖平望）,内部改造-苏州慧泉培训有限公司内部改造工程,苏州市吴江区黎里镇南京路369号1幢301室,31.370000,120.630000,31,装饰装修
292,AJ320584-1,苏州市吴江区建设工程质量安全监督站,3205842104210101,320509202106230401,AJ320584120210986,2021-06-23,执法四中队201201（汾湖平望）,年产功能性聚酯薄膜、功能性塑料80万吨（A地块）（BOPET车间六）,厍星路东侧、新黎路北侧,31.045919,120.793123,6031,房屋建筑
293,AJ320584-1,苏州市吴江区建设工程质量安全监督站,3205842105250102,320509202107150203,AJ320584120210984,2021-06-23,执法四中队201201（汾湖平望）,内部装修,芦墟镇莘塔社区莘塔大街5号（金燕半岛）57幢,31.046341,120.853984,110,装饰装修
294,AJ320584-1,苏州市吴江区建设工程质量安全监督站,3205842008130101,320509202106300301,AJ320584120210980,2021-06-21,执法四中队201201（汾湖平望）,年产光电子集成芯片 1500 万片（一 期：食堂）,汾湖高新区新黎路南侧,31.041607,120.817476,650,房屋建筑
295,AJ320584-1,苏州市吴江区建设工程质量安全监督站,3205842103050101,320509202106160203,AJ320584120210972,2021-06-15,执法四中队201201（汾湖平望）,内部装修,黎里镇城司路1218号4幢109-113,31.040907,120.853103,108.65,装饰装修
296,AJ320584-1,苏州市吴江区建设工程质量安全监督站,3205842104070102,320509202106110401,AJ320584120210968,2021-06-11,执法四中队201201（汾湖平望）,长三角科大亨芯研究院项目一期,汾湖高新区（黎里镇）科创园东侧地块,31.034208,120.887463,219.24,房屋建筑
297,AJ320584-1,苏州市吴江区建设工程质量安全监督站,3205842105120102,320509202106170101,AJ320584120210963,2021-06-10,执法四中队201201（汾湖平望）,危废库,苏州市吴江区汾湖开发区金字路东侧,31.021904,120.805457,387.66,房屋建筑
298,AJ320584-1,苏州市吴江区建设工程质量安全监督站,3205842103180101,320509202106110201,AJ320584120210959,2021-06-09,执法四中队201201（汾湖平望）,年产服装90万件项目（车间一）,苏州市吴江区平望镇梅堰开发区,30.984799,120.588404,680,房屋建筑
299,AJ320584-1,苏州市吴江区建设工程质量安全监督站,3205842003230101,320509202106080201,AJ320584120210955,2021-06-07,执法四中队201201（汾湖平望）,WJ-J-2019-024、WJ-J-2019-025地块住宅项目二期工程总承包,汾湖高新区（黎里镇）洋砂荡东,31.045660,120.868235,25911.25,房屋建筑
300,AJ320584-1,苏州市吴江区建设工程质量安全监督站,3205842102260102,320509202106080303,AJ320584120210951,2021-06-03,执法四中队201201（汾湖平望）,年产半导体专用材料1000件套,黎里镇临沪大道北侧1508号,31.031094,120.821954,1155,装饰装修
301,AJ320584-1,苏州市吴江区建设工程质量安全监督站,3205842104220101,320509202106040201,AJ320584120210945,2021-06-01,执法四中队201201（汾湖平望）,新建仓库及辅房,江苏省吴江区黎里镇浦家港西路卓赢家具北侧地块,31.012092,120.780939,11536.58,房屋建筑
302,AJ320584-1,苏州市吴江区建设工程质量安全监督站,3205842011020102,320509202106080101,AJ320584120210943,2021-06-01,执法四中队201201（汾湖平望）,"厂房,宿舍,门卫,地下泵房",汾湖高新区318国道北侧,31.011287,120.789537,3900,房屋建筑
303,AJ320584-1,苏州市吴江区建设工程质量安全监督站,3205842012010102,320509202106070101,AJ320584120210937,2021-05-27,执法四中队201201（汾湖平望）,新建仓库,江苏省苏州市吴江区黎里镇莘塔康力大道788号,31.055652,120.865985,707.78,房屋建筑
304,AJ320584-1,苏州市吴江区建设工程质量安全监督站,3205842104160103,320509202105280901,AJ320584120210935,2021-05-26,执法四中队201201（汾湖平望）,"新建仓储一体化项目-门卫1,门卫2",吴江区黎里镇天方路西侧,31.170000,120.630000,32.47,房屋建筑
305,AJ320584-1,苏州市吴江区建设工程质量安全监督站,3205842012110101,320509202105280301,AJ320584120210927,2021-05-24,执法四中队201201（汾湖平望）,金家坝学校建设多功能场馆工程,吴江区汾湖高新区金家坝金鼎东路 91 号,31.170000,120.630000,1455.07,房屋建筑
306,AJ320584-1,苏州市吴江区建设工程质量安全监督站,3205842103260102,320509202105270101,AJ320584120210926,2021-05-21,执法四中队201201（汾湖平望）,"年产成套扇形段50套、组装振动台200套、组装结晶器100套-1#厂房,2#厂房,门卫",平望镇中鲈工业园唐家湖大道18号,31.034692,120.635498,3000,房屋建筑
307,AJ320584-1,苏州市吴江区建设工程质量安全监督站,3205842104260103,320509202105250103,AJ320584120210925,2021-05-18,执法四中队201201（汾湖平望）,内部装修,苏州市吴江区黎里镇南京路369号,31.033802,120.862185,40,装饰装修
308,AJ320584-1,苏州市吴江区建设工程质量安全监督站,3205842102190102,320509202106020101,AJ320584120210921,2021-05-18,执法四中队201201（汾湖平望）,喷气织机生产技术改造项目（3#车间）,吴江区平望镇梅堰社区国金公路旁,30.991772,120.588700,1430,房屋建筑
309,AJ320584-1,苏州市吴江区建设工程质量安全监督站,3205842103090101,320509202106040101,AJ320584120210920,2021-05-14,执法四中队201201（汾湖平望）,年加工服装70万件-年加工服装70万件,平望镇梅堰龙翔路355号,30.980573,120.607983,4330,房屋建筑
310,AJ320584-1,苏州市吴江区建设工程质量安全监督站,3205842012300102,320509202106170201,AJ320584120210908,2021-05-11,执法四中队201201（汾湖平望）,新建辅房-新建食堂,苏州市吴江区黎里镇金家坝金莘路3099号,31.170062,120.630036,518,房屋建筑
311,AJ320584-1,苏州市吴江区建设工程质量安全监督站,3205842101210102,320509202105110101,AJ320584120210895,2021-04-29,执法四中队201201（汾湖平望）,WJ-J-2020-025地块商住项目（二期）,苏州吴江汾湖高新区（黎里镇）江苏路以西，城司路以北，海南路以东，洋青河路以南,31.042822,120.869326,9000,房屋建筑
312,AJ320584-1,苏州市吴江区建设工程质量安全监督站,3205842007090101,320509202105060101,AJ320584120210894,2021-04-29,执法四中队201201（汾湖平望）,吴江区汾湖智慧谷项目工程总承包,汾湖高新区厍星路西侧,31.170000,120.630000,8130.12,房屋建筑
313,AJ320584-1,苏州市吴江区建设工程质量安全监督站,3205842103110102,320509202105070101,AJ320584120210889,2021-04-28,执法四中队201201（汾湖平望）,加弹生产线技术改造项目（生产车间三）,苏州市吴江区平望镇梅堰联合村五组（318国道北侧100米，松桃线西侧）,30.983266,120.578388,1540,房屋建筑
314,AJ320584-1,苏州市吴江区建设工程质量安全监督站,3205841810080102,320509202104280101,AJ320584120210872,2021-04-21,执法四中队201201（汾湖平望）,吴江区平望镇智慧便民中心工程,吴江区平望镇北至平梅大道，西至平望派出所,30.979350,120.628886,9501.69,房屋建筑
315,AJ320584-1,苏州市吴江区建设工程质量安全监督站,3205842103110101,320509202104230101,AJ320584120210867,2021-04-20,执法四中队201201（汾湖平望）,公司整体搬迁-公司整体搬迁项目（新建车间）,平望镇小圩村,30.952162,120.652539,570,房屋建筑
316,AJ320584-1,苏州市吴江区建设工程质量安全监督站,3205842005090101,320509202104090201,AJ320584120210850,2021-04-08,执法四中队201201（汾湖平望）,苏州华锐双语学校(二期）（5#小初教学楼，6#小初宿舍、餐厅，7#幼儿园，8#门卫2，10#垃圾房，11#门卫4）,苏州汾湖开发区新友路以西、新黎路以北,31.045397,120.828732,20000,房屋建筑
317,AJ320584-1,苏州市吴江区建设工程质量安全监督站,3205842011090101,320509202104280301,AJ320584120210848,2021-04-07,执法四中队201201（汾湖平望）,5#车间、危废品库,汾湖高新区新黎路北侧、常嘉高速西侧,31.043491,120.819538,2018,房屋建筑
318,AJ320584-1,苏州市吴江区建设工程质量安全监督站,3205842005190101,320509202105120201,AJ320584120210842,2021-04-02,执法四中队201201（汾湖平望）,"年产加速器80台-2#设备用房,1#门卫,3#原料仓库及加工车间,4#总装车间,5#调试车间,6#加速管车间,7#成品仓库,8#喷砂车间、酸洗间及空压机房,9#危险品库及放射性废物暂存库",苏州市吴江区平望镇中鲈工业园,31.170000,120.630000,14101.41,房屋建筑
319,AJ320584-1,苏州市吴江区建设工程质量安全监督站,3205842101210102,320509202103190201,AJ320584120210814,2021-03-18,执法四中队201201（汾湖平望）,"WJ-J-2020-025地块商住项目(1#-17#,S1#-S3#配套用房,地下车库)",杨清河路南侧，城司路北侧，海南路东侧，江苏路西侧,31.042628,120.867633,27740.34,房屋建筑
320,AJ320584-1,苏州市吴江区建设工程质量安全监督站,3205842011100104,320509202103260103,AJ320584120210805,2021-03-12,执法四中队201201（汾湖平望）,内部装修-内部装修,吴江黎里镇芦墟芦莘大道888号（892、896、898）,31.170000,120.630000,79.96,装饰装修
321,AJ320584-1,苏州市吴江区建设工程质量安全监督站,3205842101050101,320509202103180101,AJ320584120210795,2021-03-11,执法四中队201201（汾湖平望）,4#生产车间,黎里镇临沪大道2899号,31.016000,120.614046,260.58,房屋建筑
322,AJ320584-1,苏州市吴江区建设工程质量安全监督站,3205841507310101,320509202103090201,AJ320584120210783,2021-03-05,执法四中队201201（汾湖平望）,大型购物中心及商务楼项目-吴江金鼎世纪购物广场B楼,吴江市汾湖镇芦莘大道以东-城司路以北,31.040849,120.852838,12500,房屋建筑
323,AJ320584-1,苏州市吴江区建设工程质量安全监督站,3205842012080101,320509202102090201,AJ320584120210768,2021-02-09,执法四中队201201（汾湖平望）,苏州市吴江汾湖高新区WJ-J-2020-26号地块(1-14#楼、A1-A3#楼、地下车库),汾湖高新区(黎里镇)工力铸造地块,31.170000,120.630000,23555.45,房屋建筑
324,AJ320584-1,苏州市吴江区建设工程质量安全监督站,3205842008130101,320509202102090301,AJ320584120210764,2021-02-08,执法四中队201201（汾湖平望）,年产光电子集成芯片1500万片（一期：厂房一、仓库、门卫（一）、泵房水池）,汾湖高新区新黎路南侧,31.041839,120.817189,10073.86,房屋建筑
325,AJ320584-1,苏州市吴江区建设工程质量安全监督站,3205841907120101,320509202103020301,AJ320584120210762,2021-02-07,执法四中队201201（汾湖平望）,氨气车间,吴江区黎里镇大胜路东侧,31.047114,120.810973,74.72,房屋建筑
326,AJ320584-1,苏州市吴江区建设工程质量安全监督站,3205842009110103,320509202102080401,AJ320584120210758,2021-02-05,执法四中队201201（汾湖平望）,WJ-J-2020-021地块商住用房项目S1商业、S2商业,汾湖开发区中心河路与海南路交界处,31.048151,120.867674,615,房屋建筑
327,AJ320584-1,苏州市吴江区建设工程质量安全监督站,3205842011260101,320509202102080301,AJ320584120210754,2021-02-04,执法四中队201201（汾湖平望）,"年产加速器1000套（2#车间,1#门卫,3#消防泵房水池）",吴江区黎里镇北厍汾湖村,31.015880,120.799915,3971.23,房屋建筑
328,AJ320584-1,苏州市吴江区建设工程质量安全监督站,3205842009110103,320509202101290201,AJ320584120210749,2021-01-28,执法四中队201201（汾湖平望）,"WJ-J-2020-021地块商住用房项目1-14#楼,S3#楼,门卫1,门卫2,地库",汾湖高新区中心河路与海南路交界处,31.048151,120.867979,32110.5,房屋建筑
329,AJ320584-1,苏州市吴江区建设工程质量安全监督站,3205842012080101,320509202101080101,AJ320584120210726,2021-01-08,执法四中队201201（汾湖平望）,苏州市吴江汾湖高新区WJ-J-2020-26号地块（15#楼）,汾湖高新区（黎里镇）工力铸造地块,31.042087,120.871177,371.77,房屋建筑
330,AJ320584-1,苏州市吴江区建设工程质量安全监督站,3205842010100102,320509202012310601,AJ320584120200713,2020-12-30,执法四中队201201（汾湖平望）,吴江区平望运河文体中心-文体中心,吴江区平望镇平梅大道以南，平梅支路以北，新运河以西,31.170000,120.630000,29752.29,房屋建筑
331,AJ320584-1,苏州市吴江区建设工程质量安全监督站,3205842007090103,320509202101110101,AJ320584120200710,2020-12-30,执法四中队201201（汾湖平望）,新增建筑面积8000平方米-新增建筑面积8000平方米,吴江区平望镇端市村,30.963512,120.660641,821.13,房屋建筑
332,AJ320584-1,苏州市吴江区建设工程质量安全监督站,3205842009210102,320509202012300101,AJ320584120200703,2020-12-29,执法四中队201201（汾湖平望）,"年产差别化功能性纤维20万吨项目-CP7聚酯装置,CF7直纺长丝装置,PTA仓库七,成品库七,CP7综合动力站",吴江区平望镇梅堰工业集中区,30.969132,120.624538,24000,房屋建筑
333,AJ320584-1,苏州市吴江区建设工程质量安全监督站,3205842012140101,320509202012290101,AJ320584120200691,2020-12-25,执法四中队201201（汾湖平望）,年加工经轴2000件生产技术改造项目,吴江区平望镇梅堰庙头村,30.968230,120.560597,2743.62,房屋建筑
334,AJ320584-1,苏州市吴江区建设工程质量安全监督站,3205841907310101,320509202012040401,AJ320584120200640,2020-12-03,执法四中队201201（汾湖平望）,"吴江区中医医院异地新建工程-住院综合楼,门诊医技综合楼,地下车库,垃圾及污水处理站",吴江区平望镇平西村,30.981207,120.631815,50765.43,房屋建筑
335,AJ320584-1,苏州市吴江区建设工程质量安全监督站,3205841912160101,320509202011300401,AJ320584120200618,2020-11-25,执法四中队201201（汾湖平望）,2#饮品车间、3#污水处理池,黎里镇临沪中路南侧文昌路168号,31.033272,120.781342,2400,房屋建筑
336,AJ320584-1,苏州市吴江区建设工程质量安全监督站,3205842009100101,320509202012140201,AJ320584120200615,2020-11-25,执法四中队201201（汾湖平望）,平望康养中心项目,平望镇梅堰社区頔塘河南侧,30.978172,120.589809,8593.41,房屋建筑
337,AJ320584-1,苏州市吴江区建设工程质量安全监督站,3205842005140101,320509202011250101,AJ320584120200614,2020-11-25,执法四中队201201（汾湖平望）,新建仓库及辅房项目,黎里镇318国道北侧将军荡西侧,31.006816,120.731149,57700,房屋建筑
338,AJ320584-1,苏州市吴江区建设工程质量安全监督站,3205842003230101,320509202010190101,AJ320584120200538,2020-10-19,执法四中队201201（汾湖平望）,吴江汾湖WJ-J-2019-024、WJ-J-2019-025地块住宅项目一期（1.2）,江苏省苏州市吴江区,31.048522,120.867871,8737.11,房屋建筑
339,AJ320584-1,苏州市吴江区建设工程质量安全监督站,3205842008060102,320509202010130101,AJ320584120200516,2020-10-09,执法四中队201201（汾湖平望）,"年产自动化设备3500台-自动化车间,电子车间,综合楼,门卫及消控室",江苏省苏州市吴江区平望镇中鲈工业集中区,31.032834,120.634437,3000,房屋建筑
340,AJ320584-1,苏州市吴江区建设工程质量安全监督站,3205842008200102,320509202009300401,AJ320584120200511,2020-09-28,执法四中队201201（汾湖平望）,"WJ-J-2020-015号地块商住项目-14#,15#",苏州市吴江区汾湖高新区（黎里镇）光明北地块，东至西湾河，南至越秀路，西至空地，北至西湾河,31.037845,120.831107,195.27,房屋建筑
341,AJ320584-1,苏州市吴江区建设工程质量安全监督站,3205842008200102,320509202009300101,AJ320584120200510,2020-09-28,执法四中队201201（汾湖平望）,"WJ-J-2020-015号地块商住项目-1#,2#,3#,4#,5#,6#,7#,8#,9#,10#,11#,12#,13#,1#配电间,2#配电房,垃圾房,门卫,地下车库",苏州市吴江区汾湖高新区（黎里镇）光明北地块，东至西湾河，南至越秀路，西至空地，北至西湾河,31.040608,120.826546,49805.49,房屋建筑
342,AJ320584-1,苏州市吴江区建设工程质量安全监督站,3205842007160103,320509202009230201,AJ320584120200491,2020-09-23,执法四中队201201（汾湖平望）,汾湖北窑港西地块公寓房工程,汾湖北窑港西侧、越江路南侧、新友农贸市场东侧,31.028031,120.840742,18373.67,房屋建筑
343,AJ320584-1,苏州市吴江区建设工程质量安全监督站,3205842005200104,320509202009160101,AJ320584120200448,2020-08-27,执法四中队201201（汾湖平望）,"年彩印包装铁皮6万吨-1#甲类仓库,2#地下消防泵房水池,3#印刷车间,5#配料车间",苏州市吴江区平望镇中鲈科技园,31.028039,120.640142,1100,房屋建筑
344,AJ320584-1,苏州市吴江区建设工程质量安全监督站,3205841606130101,320509202008310101,AJ320584120200438,2020-08-24,执法四中队201201（汾湖平望）,嘉乐城生活广场A2地块工程,吴江区汾湖镇北京路以北，甘溪路以东，洋沙路以西,31.038772,120.855829,69235,房屋建筑
345,AJ320584-1,苏州市吴江区建设工程质量安全监督站,3205841710100103,320509202008310301,AJ320584120200437,2020-08-21,执法四中队201201（汾湖平望）,5#宿舍食堂,苏州市吴江区黎里镇汾杨路313号,31.170000,120.630000,1300,房屋建筑
346,AJ320584-1,苏州市吴江区建设工程质量安全监督站,3205842006190103,320509202008210201,AJ320584120200436,2020-08-21,执法四中队201201（汾湖平望）,WJ-J-2020-010地块住宅项目二期,苏州吴江区平望镇平梅支路南侧平西路东侧,30.977341,120.631145,23057.38,房屋建筑
347,AJ320584-1,苏州市吴江区建设工程质量安全监督站,3205841703200101,320509202008200101,AJ320584120200422,2020-08-14,执法四中队201201（汾湖平望）,新建物流仓储用房（16#冷库）,吴江区平望镇中鲈工业集中区,31.032641,120.642869,3319,房屋建筑
348,AJ320584-1,苏州市吴江区建设工程质量安全监督站,3205842003230101,320509202008120201,AJ320584120200415,2020-08-12,执法四中队201201（汾湖平望）,"WJ-J-2019-024、WJ-J-2019-025地块住宅项目-22#楼,23#楼,27#楼,30#楼,31#楼,34#楼,39#楼,43#楼,S4#楼,S5#楼,S6#楼,地下汽车库(1-1)",吴江汾湖高新技术区洋砂荡东,31.048522,120.867871,14758.4,房屋建筑
349,AJ320584-1,苏州市吴江区建设工程质量安全监督站,3205842003230101,320509202007240801,AJ320584120200366,2020-07-24,执法四中队201201（汾湖平望）,吴江汾湖WJ-J-2019-024、WJ-J-2019-025地块住宅项目(37#、38#、40#、41#、42#楼）,江苏省苏州市吴江区,31.048522,120.867871,28183.88,房屋建筑
350,AJ320584-1,苏州市吴江区建设工程质量安全监督站,3205842006190103,320509202007230501,AJ320584120200364,2020-07-22,执法四中队201201（汾湖平望）,WJ-J-2020-010号地块项目一期（配套用房17#）,苏州吴江区平望镇平梅支路南侧平西路东侧,30.978,120.628225,419.3,房屋建筑
351,AJ320584-1,苏州市吴江区建设工程质量安全监督站,3205842005210101,320509202007310101,AJ320584120200357,2020-07-22,执法四中队201201（汾湖平望）,新建3#车间,吴江区平望镇梅堰联合村,30.980762,120.577499,2125,房屋建筑
352,AJ320584-1,苏州市吴江区建设工程质量安全监督站,3205841904290101,320509202007240201,AJ320584120200321,2020-07-03,执法四中队201201（汾湖平望）,年充装392.2万瓶工业气体项目一期,苏州市吴江区黎里镇芦墟越秀路北侧,31.036130,120.819336,2950,房屋建筑
353,AJ320584-1,苏州市吴江区建设工程质量安全监督站,3205841701050101,320509202007010101,AJ320584120200303,2020-06-30,执法四中队201201（汾湖平望）,"汾湖经济开发区南京路南侧商业用房项目-1#,2#,3#,4#,5#,地下室",苏州市吴江区南京路369号南侧,31.170000,120.630000,8650,房屋建筑
354,AJ320584-1,苏州市吴江区建设工程质量安全监督站,3205841901030102,320509202011110301,AJ320584120200283,2020-06-23,执法四中队201201（汾湖平望）,"年产喷气织物1200万米、针织物600吨项目-车间一,车间二,泵房水池",吴江区平望镇梅堰社区双浜村,30.992832,120.592092,328,房屋建筑
355,AJ320584-1,苏州市吴江区建设工程质量安全监督站,3205841606130101,320509202006240501,AJ320584120200280,2020-06-22,执法四中队201201（汾湖平望）,嘉乐城生活广场A5地块工程,汾湖北京路以北，浙江路以东,31.170000,120.630000,24499.29,房屋建筑
356,AJ320584-1,苏州市吴江区建设工程质量安全监督站,3205842006040102,320509202006240101,AJ320584120200279,2020-06-19,执法四中队201201（汾湖平望）,"年加工纸管1.5万吨生产线技术改造项目-生产车间一,生产车间二,地下泵房",吴江区平望镇梅堰龙南村,30.992399,120.595278,1150,房屋建筑
357,AJ320584-1,苏州市吴江区建设工程质量安全监督站,3205841604130102,320509202006190201,AJ320584120200181,2020-06-15,执法四中队201201（汾湖平望）,中国移动（苏州）数据机房项目二期工程总承包,双珠荡以东，新黎路以北,31.038211,120.777340,28479.49,房屋建筑
358,AJ320584-1,苏州市吴江区建设工程质量安全监督站,3205842005090101,320509202006120301,AJ320584120200172,2020-06-12,执法四中队201201（汾湖平望）,"苏州华锐双语学校-1#高中综合楼,2#高中宿舍、餐厅,3#门卫1,4#垃圾房",汾湖开发区新友路以西、新黎路以北,31.044701,120.827596,25800,房屋建筑
359,AJ320584-1,苏州市吴江区建设工程质量安全监督站,3205841803160101,320509202005260703,AJ320584120200129,2020-05-07,执法四中队201201（汾湖平望）,汾湖科技创业园人才公寓装饰工程,吴江区黎里镇汾湖大道558号,31.032293,120.881068,3368.71,装饰装修
360,AJ320584-1,苏州市吴江区建设工程质量安全监督站,3205841608220101,320509202006020101,AJ320584120200118,2020-04-24,执法四中队201201（汾湖平望）,年产500万双高档鞋类及鞋材项目-厂房及辅房（2#厂房）,江苏省苏州市吴江区黎里镇临沪大道2222号,31.170000,120.630000,3800,房屋建筑
361,AJ320584-1,苏州市吴江区建设工程质量安全监督站,3205841912210101,320509202004300401,AJ320584120200114,2020-04-23,执法四中队201201（汾湖平望）,"新建辅房18000平方米项目-生活楼二,接建门楼",吴江区平望镇梅堰工业集中区,30.967516,120.611968,3974.3,房屋建筑
362,AJ320584-1,苏州市吴江区建设工程质量安全监督站,3205841910110101,320509202002250201,AJ320584120200039,2020-01-21,执法四中队201201（汾湖平望）,聚酯切片固相聚合技术改造项目-聚酯切片固相聚合技术改造项目,江苏省苏州市吴江区平望镇梅堰工业集中区,30.970498,120.620972,626.46,房屋建筑
363,AJ320584-1,苏州市吴江区建设工程质量安全监督站,3205841912190103,320509202001190501,AJ320584120200036,2020-01-17,执法四中队201201（汾湖平望）,年产智能多适应转杯纺纱机66台-车间,黎里镇越秀路北侧,31.036610,120.816960,5500,房屋建筑
364,AJ320584-1,苏州市吴江区建设工程质量安全监督站,3205841903140102,320509202002280301,AJ320584120200029,2020-01-16,执法四中队201201（汾湖平望）,年产全自动光学影像全检设备600台、全自动包装设备200台-生产车间,江苏省苏州市吴江区,31.03782151146605,120.8165033356474,2200,房屋建筑
365,AJ320584-1,苏州市吴江区建设工程质量安全监督站,3205841902130101,320509202003130101,AJ320584120200027,2020-01-16,执法四中队201201（汾湖平望）,年加工机械零件8000吨项目,吴江区平望镇,31.027382,120.650808,6239.93,房屋建筑
366,AJ320584-1,苏州市吴江区建设工程质量安全监督站,3205841905210101,320509202001200101,AJ320584120200025,2020-01-16,执法四中队201201（汾湖平望）,苏州中鲈国际物流科技园公共租赁住房及商业中心二期工程,吴江区平望镇中鲈开发区,31.036829,120.645528,8424.19,房屋建筑
367,AJ320584-1,苏州市吴江区建设工程质量安全监督站,3205841809280101,320509202001170501,AJ320584120200016,2020-01-09,执法四中队201201（汾湖平望）,"汾湖高新技术产业开发区新友花苑二期南地块工程-6#,8#,9#,11#,12#,配电房,门卫1,2#汽车库",吴江区黎里镇临沪大道南侧，蛇泽路南侧，西秀路西侧,31.027992,120.830933,20253.8,房屋建筑
368,AJ320584-1,苏州市吴江区建设工程质量安全监督站,3205841905210102,320509202001210101,AJ320584120200007,2020-01-06,执法四中队201201（汾湖平望）,苏州中鲈国际物流科技园公共租赁住房三期,吴江区平望镇中鲈开发区,31.034996,120.643736,3678.83,房屋建筑
369,AJ320584-1,苏州市吴江区建设工程质量安全监督站,3205841908260101,320509201912310201,AJ320584120190527,2019-12-23,执法四中队201201（汾湖平望）,金家坝红旗公寓房工程,吴江区黎里镇金家坝金鼎西路,31.100144,120.781868,6896.98,房屋建筑
370,AJ320584-1,苏州市吴江区建设工程质量安全监督站,3205841809280102,320509201912310101,AJ320584120190525,2019-12-20,执法四中队201201（汾湖平望）,汾湖高新技术产业开发区新友花苑二期北地块工程,汾湖高新区区域内,31.029764,120.827976,28126.57,房屋建筑
371,AJ320584-1,苏州市吴江区建设工程质量安全监督站,3205841809280101,320509202001170201,AJ320584120190487,2019-12-04,执法四中队201201（汾湖平望）,"汾湖高新技术产业开发区新友花苑二期南地块工程-4#,5#,7#,10#,1#汽车库,养老用房,养老用房",吴江区黎里镇临沪大道南侧、蛇泽路南侧、西秀路西侧,31.170000,120.630000,17262.01,房屋建筑
372,AJ320584-1,苏州市吴江区建设工程质量安全监督站,3205841809280101,320509201912250401,AJ320584120190478,2019-11-29,执法四中队201201（汾湖平望）,"汾湖高新技术产业开发区新友花苑二期南地块工程-1#,2#,3#,配套用房",吴江区黎里镇临沪大道南侧、蛇泽路南侧、西秀路西侧,31.028983,120.828238,9323.71,房屋建筑
373,AJ320584-1,苏州市吴江区建设工程质量安全监督站,3205841902210102,320509202001020201,AJ320584120190460,2019-11-19,执法四中队201201（汾湖平望）,"新建仓库及辅房项目-仓库1,仓库2,门卫1,门卫2,自行车棚1,自行车棚2,设备用房,坡道1,坡道2,行车平台",吴江区平望镇中鲈科技园内,31.032239,120.647524,22127,房屋建筑
374,AJ320584-1,苏州市吴江区建设工程质量安全监督站,3205841809280102,320509201911270201,AJ320584120190441,2019-11-07,执法四中队201201（汾湖平望）,"新友花苑二期北地块工程一标段,1#楼,2#楼,3#楼,10#楼,11#楼,12#楼,门卫2",吴江区黎里镇临沪大道南侧，蛇泽路北侧，西秀路西侧,31.028379,120.828669,15591.76,房屋建筑
375,AJ320584-1,苏州市吴江区建设工程质量安全监督站,3205841903210104,320509201911040301,AJ320584120190408,2019-10-28,执法四中队201201（汾湖平望）,"WJ-J-2013-022地块住宅项目-01#住宅楼,02#住宅楼,03#住宅楼,04#住宅楼,05#住宅楼（东侧）,05#住宅楼（西楼）,06#住宅楼,07#住宅楼（东楼）,07#住宅楼（西楼）,0",吴江区汾湖高新区浦港路以东、东姑荡以北,31.03942120706639,120.8670826171048,43814,房屋建筑
376,AJ320584-1,苏州市吴江区建设工程质量安全监督站,3205841802070102,320509201909250101,AJ320584120190364,2019-09-24,执法四中队201201（汾湖平望）,新建半导体生产厂房等项目-(4座气站、5座仓库、1栋门卫、事故池1和2、埋地油罐基础、产品检验楼）,汾湖高新区新黎路北侧来秀路东侧,31.045550,120.814613,9998.72,房屋建筑
377,AJ320584-1,苏州市吴江区建设工程质量安全监督站,3205841905160101,320509201909260301,AJ320584120190360,2019-09-19,执法四中队201201（汾湖平望）,新建科研大楼,黎里镇汾湖大道558号,31.032077,120.884638,3225.88,房屋建筑
378,AJ320584-1,苏州市吴江区建设工程质量安全监督站,3205841809270103,320509201909030101,AJ320584120190290,2019-08-01,执法四中队201201（汾湖平望）,黎里黎花公寓房工程,吴江区黎里镇黎花村,31.001186,120.707757,5473.1,房屋建筑
379,AJ320584-1,苏州市吴江区建设工程质量安全监督站,3205841810100101,320509201903190101,AJ320584120190104,2019-03-12,执法四中队201201（汾湖平望）,WJ-J-2018-022地块住宅项目（6#住宅、14#住宅）,平望镇新百盛路东混水路南侧,30.979334,120.655117,1738.76,房屋建筑
380,AJ320584-1,苏州市吴江区建设工程质量安全监督站,3205841711220101,320509201808240101,AJ320584120180348,2018-08-14,执法四中队201201（汾湖平望）,爱慕华东运营中心,苏州市吴江区黎里镇芦莘大道以东常州路以北,31.042357,120.853422,13692.95,房屋建筑
381,AJ320584-1,苏州市吴江区建设工程质量安全监督站,3205841607150102,320509201807180201,AJ320584120180264,2018-07-06,执法四中队201201（汾湖平望）,豪门府邸二期M区1-9#楼、S1、S2、社区用房及开关站、地下车库,吴江区平望镇下沙荡小区1号、2号地块,30.94916,120.643979,18655.88,房屋建筑
382,AJ320584-1,苏州市吴江区建设工程质量安全监督站,3205841611230101,320509201803230401,AJ320584120170155,2017-12-21,执法四中队201201（汾湖平望）,"苏州市汾湖城乡一体化——汾湖人家5号地块安置公寓房项目-14#住宅,15#住宅",吴江区黎里镇韩棚路以南、思忠路以东,31.170000,120.630000,6155.41,房屋建筑
383,AJ320584-1,苏州市吴江区建设工程质量安全监督站,3205841611230101,320509201712270201,AJ320584120170149,2017-12-19,执法四中队201201（汾湖平望）,"苏州市汾湖城乡一体化——汾湖人家5号地块安置公寓房项目-1#住宅,2#住宅,2#门卫",吴江区黎里镇韩棚路以南、思忠路以东,31.048889,120.876513,3671.83,房屋建筑
384,AJ320584-1,苏州市吴江区建设工程质量安全监督站,3205842105120201,320509202108020102,AJ320584120211441,2021-07-28,执法五中队201201（全区市政（非盛泽））,2021年震泽镇农村生活污水治理工程二标段,吴江区震泽镇,31.170000,120.630000,2585.01,市政工程
385,AJ320584-1,苏州市吴江区建设工程质量安全监督站,3205842007080201,320509202108020202,AJ320584120211438,2021-07-27,执法五中队201201（全区市政（非盛泽））,长三角生态绿色一体化发展示范区先行启动区-吴江黎里镇污水处理提质增效工程（FH-20-08 区块）,江苏省汾湖高新区,31.170000,120.630000,1885,市政工程
386,AJ320584-1,苏州市吴江区建设工程质量安全监督站,3205842105120201,320509202108030102,AJ320584120211437,2021-07-27,执法五中队201201（全区市政（非盛泽））,2021年震泽镇农村生活污水治理工程一标段,吴江区震泽镇,30.883787,120.522329,1601.18,市政工程
387,AJ320584-1,苏州市吴江区建设工程质量安全监督站,3205842103170201,320509202107190202,AJ320584120211421,2021-07-19,执法五中队201201（全区市政（非盛泽））,八坼街道2021年双联村、直港村农村污水治理工程,吴江八坼,31.067733,120.647571,459.35,市政工程
388,AJ320584-1,苏州市吴江区建设工程质量安全监督站,3205842104080201,320509202107090402,AJ320584120210999,2021-06-30,执法五中队201201（全区市政（非盛泽））,震泽镇锦泽华府、锦泽街及周边、木祥小区雨污分流改造工程,吴江区震泽镇,31.170000,120.630000,2029.91,市政工程
389,AJ320584-1,苏州市吴江区建设工程质量安全监督站,3205842102010204,320509202105200302,AJ320584120210918,2021-05-14,执法五中队201201（全区市政（非盛泽））,西湖花苑三区、五区老旧小区改造工程,吴江经济技术开发区西湖花苑,31.170000,120.630000,1388.18,市政工程
390,AJ320584-1,苏州市吴江区建设工程质量安全监督站,3205842102010204,320509202105200202,AJ320584120210917,2021-05-14,执法五中队201201（全区市政（非盛泽））,西湖花苑四区老旧小区改造工程,吴江经济技术开发区西湖花苑,31.170000,120.630000,2142.46,市政工程
391,AJ320584-1,苏州市吴江区建设工程质量安全监督站,3205842102010203,320509202105210202,AJ320584120210915,2021-05-14,执法五中队201201（全区市政（非盛泽））,朱家浜老旧小区改造工程,吴江经济技术开发区同里镇朱家浜小区,31.144892,120.730341,2769.43,市政工程
392,AJ320584-1,苏州市吴江区建设工程质量安全监督站,3205842102010201,320509202105190102,AJ320584120210913,2021-05-13,执法五中队201201（全区市政（非盛泽））,山湖社区一区、老二区老旧小区改造工程,吴江经济技术开发区,31.170000,120.630000,489.28,市政工程
393,AJ320584-1,苏州市吴江区建设工程质量安全监督站,3205842102010202,320509202105180302,AJ320584120210910,2021-05-12,执法五中队201201（全区市政（非盛泽））,浩浪小区老旧小区改造工程,吴江经济技术开发区同里镇浩浪小区,31.170000,120.630000,2898.07,市政工程
394,AJ320584-1,苏州市吴江区建设工程质量安全监督站,3205842009090201,320509202104220202,AJ320584120210865,2021-04-16,执法五中队201201（全区市政（非盛泽））,运河中路支路（庞山路-东太湖大道）工程-运河中路支路（庞山路-东太湖大道）工程,吴江经济技术开发区,31.148086,120.676231,1508.66,市政工程
395,AJ320584-1,苏州市吴江区建设工程质量安全监督站,3205842006240203,320509202104250202,AJ320584120210858,2021-04-13,执法五中队201201（全区市政（非盛泽））,苏州市吴江横扇生活污水处理厂提标改造工程,横扇四都村,31.023118,120.568772,975.24,主体
396,AJ320584-1,苏州市吴江区建设工程质量安全监督站,3205841910150201,320509202104120202,AJ320584120210847,2021-04-07,执法五中队201201（全区市政（非盛泽））,花港新建路网工程项目二标段（湖滨北路）,吴江经济技术开发区,31.208506,120.659501,3702.27,市政工程
397,AJ320584-1,苏州市吴江区建设工程质量安全监督站,3205842010100201,320509202103170102,AJ320584120210794,2021-03-10,执法五中队201201（全区市政（非盛泽））,西湖花苑一区、二区老旧小区综合改造工程-西湖花苑一区、二区老旧小区综合改造工程,吴江开发区西湖花苑一区、二区,31.213795,120.639190,1508.97,市政工程
398,AJ320584-1,苏州市吴江区建设工程质量安全监督站,3205842007080201,320509202103190102,AJ320584120210784,2021-03-05,执法五中队201201（全区市政（非盛泽））,长三角生态绿色一体化发展示范先行启动区-吴江区黎里镇污水处理提质增效工程（湖北路等污水管网工程）,吴江市汾湖高新区区域内,31.060216,120.845486,1209.69,市政工程
399,AJ320584-1,苏州市吴江区建设工程质量安全监督站,3205842007100201,320509202107140202,AJ320584120210769,2021-02-10,执法五中队201201（全区市政（非盛泽））,长板路及周边道路路面、管道修复工程,吴江经济技术开发区,31.170000,120.630000,2936.4,市政工程
400,AJ320584-1,苏州市吴江区建设工程质量安全监督站,3205841911210201,320509202102030202,AJ320584120210735,2021-01-19,执法五中队201201（全区市政（非盛泽））,建设云梨路综合改造工程-云梨路综合改造工程,吴江经济技术开发区,31.170000,120.630000,78324.56,市政工程
401,AJ320584-1,苏州市吴江区建设工程质量安全监督站,3205841801270201,320509202101120102,AJ320584120210720,2021-01-04,执法五中队201201（全区市政（非盛泽））,吴江区太湖新城北片区综合管廊工程-吴江区太湖新城北片区综合管廊工程4标,吴江区太湖新城,31.170000,120.630000,17366.41,市政工程
402,AJ320584-1,苏州市吴江区建设工程质量安全监督站,3205842004080201,320509202101180102,AJ320584120200669,2020-12-18,执法五中队201201（全区市政（非盛泽））,2020年度桃源镇雨污分流改造工程-2020 年度桃源镇雨污分流改造工程-青云片区等,吴江区桃源镇,31.170000,120.630000,1245,市政工程
403,AJ320584-1,苏州市吴江区建设工程质量安全监督站,3205841711150204,320509201911040102,T20190451,2020-12-03,执法五中队201201（全区市政（非盛泽））,黎里周宫傅路道路工程建设项目-黎里周宫傅路道路工程,汾湖高新区黎里区域内,31.170000,120.630000,372.78,市政工程
404,AJ320584-1,苏州市吴江区建设工程质量安全监督站,3205841803190101,320509202012300202,AJ320584120200627,2020-11-30,执法五中队201201（全区市政（非盛泽））,山湖花园九区动迁安置房项目-山湖花园九区动迁安置房海绵措施虹吸排水系统工程,吴江经济技术开发区,31.170000,120.630000,502.07,市政工程
405,AJ320584-1,苏州市吴江区建设工程质量安全监督站,3205842005280203,320509202011300202,AJ320584120200617,2020-11-25,执法五中队201201（全区市政（非盛泽））,平望镇老农贸市场周边雨污分流综合改造工程,平望镇老农贸市场,30.979892,120.649624,81.42,市政工程
406,AJ320584-1,苏州市吴江区建设工程质量安全监督站,3205842005280214,320509202012020302,AJ320584120200607,2020-11-20,执法五中队201201（全区市政（非盛泽））,平望镇云景台北侧地块雨污分流综合改造工程-平望镇云景台北侧地块雨污分流综合改造工程,吴江区平望镇,30.979748,120.653221,124.97,市政工程
407,AJ320584-1,苏州市吴江区建设工程质量安全监督站,3205842005280204,320509202011270102,AJ320584120200602,2020-11-18,执法五中队201201（全区市政（非盛泽））,平望镇西浜小区雨污分流综合改造工程-平望镇西浜小区雨污分流综合改造工程,苏州市吴江区平望镇,31.054392,120.626012,166.13,市政工程
408,AJ320584-1,苏州市吴江区建设工程质量安全监督站,3205842009100201,320509202011260102,AJ320584120200596,2020-11-16,执法五中队201201（全区市政（非盛泽））,七都镇2020年农村生活污水治理工程（东庙桥村）,吴江区七都镇,31.170000,120.630000,1246.36,市政工程
409,AJ320584-1,苏州市吴江区建设工程质量安全监督站,3205842009100201,320509202011260202,AJ320584120200595,2020-11-13,执法五中队201201（全区市政（非盛泽））,七都镇2020年农村生活污水治理工程（吴越村东片区）,吴江区七都镇吴越村,31.170000,120.630000,1070.19,市政工程
410,AJ320584-1,苏州市吴江区建设工程质量安全监督站,3205842009100201,320509202011250302,AJ320584120200594,2020-11-13,执法五中队201201（全区市政（非盛泽））,七都镇 2020 年农村生活污水治理工程（吴越村西片区）,吴江区七都镇吴越村,30.918856,120.401925,1041.64,市政工程
411,AJ320584-1,苏州市吴江区建设工程质量安全监督站,3205842005280215,320509202012040302,AJ320584120200589,2020-11-10,执法五中队201201（全区市政（非盛泽））,平望镇运河西侧小区雨污分流综合改造工程-平望镇运河西侧小区雨污分流综合改造工程,吴江区平望镇运河西侧,30.990595,120.651029,292.42,市政工程
412,AJ320584-1,苏州市吴江区建设工程质量安全监督站,3205842006080201,320509202011120102,AJ320584120200580,2020-11-06,执法五中队201201（全区市政（非盛泽））,2020年平望镇农村生活污水治理及配套工程一期项目,吴江区平望镇,31.033674,120.622553,6923.89,市政工程
413,AJ320584-1,苏州市吴江区建设工程质量安全监督站,3205842007080201,320509202011240202,AJ320584120200570,2020-11-05,执法五中队201201（全区市政（非盛泽））,长三角生态绿色一体化发展示范先行启动区-吴江区黎里镇污水处理提质增效工程-芦墟片区168区块,吴江区黎里镇,31.170000,120.630000,594.12,市政工程
414,AJ320584-1,苏州市吴江区建设工程质量安全监督站,3205842007080201,320509202012040202,AJ320584120200564,2020-10-28,执法五中队201201（全区市政（非盛泽））,长三角生态绿色一体化发展示范先行启动区-吴江区黎里镇污水处理提质增效工程-芦墟片区164区块（浦南路以西）,吴江区黎里镇,31.019590,120.846977,1137.39,市政工程
415,AJ320584-1,苏州市吴江区建设工程质量安全监督站,3205842006090201,320509202011030202,AJ320584120200553,2020-10-26,执法五中队201201（全区市政（非盛泽））,平望镇双龙路两侧雨污分流综合改造工程,苏州市吴江区平望镇,30.991931,120.640263,2039.97,市政工程
416,AJ320584-1,苏州市吴江区建设工程质量安全监督站,3205842007080201,320509202012150102,AJ320584120200552,2020-10-26,执法五中队201201（全区市政（非盛泽））,长三角生态绿色一体化发展示范先行启动区-吴江区黎里镇污水处理提质增效工程-FH-01-08区块,吴江汾湖高新区,31.031632,120.862580,425.63,市政工程
417,AJ320584-1,苏州市吴江区建设工程质量安全监督站,3205842005280207,320509202011030402,AJ320584120200549,2020-10-23,执法五中队201201（全区市政（非盛泽））,平望镇新诚社区居委会周边雨污分流综合改造工程-平望镇新诚社区居委会周边雨污分流综合改造工程,吴江区平望镇新诚社区周边,31.170000,120.630000,1250.31,市政工程
418,AJ320584-1,苏州市吴江区建设工程质量安全监督站,3205842005280206,320509202011030302,AJ320584120200536,2020-10-16,执法五中队201201（全区市政（非盛泽））,平望镇溪河弄周边雨污分流综合改造工程,吴江区平望镇,31.170000,120.630000,279.56,市政工程
419,AJ320584-1,苏州市吴江区建设工程质量安全监督站,3205842005280205,320509202010220102,AJ320584120200533,2020-10-15,执法五中队201201（全区市政（非盛泽））,平望镇龙庭花园、育龙庄园雨污分流综合改造工程-平望镇龙庭花园、育龙庄园雨污分流综合改造工程,苏州市吴江区平望镇龙庭花园、育龙庄园,31.170000,120.630000,248.2,市政工程
420,AJ320584-1,苏州市吴江区建设工程质量安全监督站,3205842003120201,320509202107150102,AJ320584120200532,2020-10-14,执法五中队201201（全区市政（非盛泽））,八坼街道2020年新营村、直港村、练聚村农村污水治理工程-八坼街道2020年新营村、直港村、练聚村农村污水治理工程,吴江区八坼街道新营村、直港村、练聚村,31.047598,120.668659,621.51,市政工程
421,AJ320584-1,苏州市吴江区建设工程质量安全监督站,3205842007080201,320509202010280202,AJ320584120200530,2020-10-14,执法五中队201201（全区市政（非盛泽））,长三角生态绿色一体化发展示范先行启动区-吴江区黎里镇污 水处理提质增效工程-芦墟片区 163（浦南路以西）区块,吴江区黎里镇,31.170000,120.630000,925.7,市政工程
422,AJ320584-1,苏州市吴江区建设工程质量安全监督站,3205842006080202,320509202010160202,AJ320584120200523,2020-10-12,执法五中队201201（全区市政（非盛泽））,2020年平望镇农村生活污水治理及配套工程二期项目,平望镇新南村、三官桥村、联合村,30.971207,120.583073,6613.04,市政工程
423,AJ320584-1,苏州市吴江区建设工程质量安全监督站,3205842005280211,320509202010200102,AJ320584120200521,2020-10-10,执法五中队201201（全区市政（非盛泽））,平望镇益丰新村及周边雨污分流综合改造工程,平望镇益丰新村及周边,30.987724,120.594481,1151,市政工程
424,AJ320584-1,苏州市吴江区建设工程质量安全监督站,3205842007080201,320509202012020102,AJ320584120200513,2020-09-30,执法五中队201201（全区市政（非盛泽））,长三角生态绿色一体化发展示范先行启动区- 吴江区黎里镇污水处理提质增效工程- 芦墟片区161区块,吴江黎里镇,31.010448,120.853715,1495,市政工程
425,AJ320584-1,苏州市吴江区建设工程质量安全监督站,3205842005280202,320509202009300502,AJ320584120200499,2020-09-25,执法五中队201201（全区市政（非盛泽））,平望镇平西新村及周边雨污分流综合改造工程-平望镇平西新村及周边雨污分流综合改造工程,吴江区平望镇平西新村及周边,30.983189,120.641786,1237.13,市政工程
426,AJ320584-1,苏州市吴江区建设工程质量安全监督站,3205842007080201,320509202009290102,AJ320584120200494,2020-09-23,执法五中队201201（全区市政（非盛泽））,长三角生态绿色一体化发展示范先行启动区-吴江区黎里镇污水处理提质增效工程-长三角生态绿色一体化发展示范先行启动区-吴江区黎里镇污水处理提质增效工程-芦墟片区167区块,吴江区黎里镇,31.170000,120.630000,760.89,市政工程
427,AJ320584-1,苏州市吴江区建设工程质量安全监督站,3205841905060201,320509202009290402,AJ320584120200472,2020-09-14,执法五中队201201（全区市政（非盛泽））,四期扩建及升级提标改造工程-吴江经济技术开发区运东污水处理厂四期扩建工程,吴江区江兴东路858号,31.170000,120.630000,11620.89,市政工程
428,AJ320584-1,苏州市吴江区建设工程质量安全监督站,3205842003160201,320509202009160302,AJ320584120200459,2020-09-02,执法五中队201201（全区市政（非盛泽））,2020年黎里镇排水达标区建设工程（芦墟片区-166号区块）,吴江汾湖高新区,31.017888,120.845647,1138.51,市政工程
429,AJ320584-1,苏州市吴江区建设工程质量安全监督站,3205842003160201,320509202009080602,AJ320584120200457,2020-08-31,执法五中队201201（全区市政（非盛泽））,2020 年黎里镇排水达标区建设工程（芦墟片区-165 号区块）,吴江汾湖高新区,31.031953,120.868680,470.76,市政工程
430,AJ320584-1,苏州市吴江区建设工程质量安全监督站,3205842003160201,320509202009030202,AJ320584120200455,2020-08-31,执法五中队201201（全区市政（非盛泽））,2020年黎里镇排水达标区建设工程-2020年黎里镇排水达标区建设工程（芦墟片区-159号区块）,吴江汾湖高新区,31.170000,120.630000,761.73,市政工程
431,AJ320584-1,苏州市吴江区建设工程质量安全监督站,3205842003160201,320509202009030102,AJ320584120200429,2020-08-18,执法五中队201201（全区市政（非盛泽））,2020年黎里镇排水达标区建设工程-2020年黎里镇排水达标区建设工程（芦墟片区-163号区块-浦南路以东）,吴江汾湖高新区,31.018302,120.841371,826.06,市政工程
432,AJ320584-1,苏州市吴江区建设工程质量安全监督站,3205842003160201,320509202008240102,AJ320584120200416,2020-08-12,执法五中队201201（全区市政（非盛泽））,2020年黎里镇排水达标区建设工程-2020年黎里镇排水达标区建设工程（芦墟片区-164号区块-浦南路以东）,吴江汾湖高新区,31.170000,120.630000,1240.57,市政工程
433,AJ320584-1,苏州市吴江区建设工程质量安全监督站,3205842003160201,320509202008180202,AJ320584120200412,2020-08-11,执法五中队201201（全区市政（非盛泽））,2020年黎里镇排水达标区建设工程（芦墟片区-162号区块）,吴江汾湖高新区,31.010228,120.848832,1469.34,市政工程
434,AJ320584-1,苏州市吴江区建设工程质量安全监督站,3205842003160201,320509202008200202,AJ320584120200404,2020-08-07,执法五中队201201（全区市政（非盛泽））,2020年黎里镇排水达标区建设工程（北厍片区-154区块）,吴江汾湖高新区,31.026442,120.851414,1074.46,市政工程
435,AJ320584-1,苏州市吴江区建设工程质量安全监督站,3205842004010201,320509202008210102,AJ320584120200401,2020-08-06,执法五中队201201（全区市政（非盛泽））,2020年运东部分污水改造工程-2020年运东部分污水改造工程-松厍公路支路污水管，罗里石桥污水管改造工程,吴江经济技术开发区,31.170000,120.630000,462.59,市政工程
436,AJ320584-1,苏州市吴江区建设工程质量安全监督站,3205842003020203,320509202008140102,AJ320584120200390,2020-08-03,执法五中队201201（全区市政（非盛泽））,震泽镇名人苑、富景苑及周边雨污分流改造工程,震泽镇名人苑、富景苑及周边,30.910839,120.521112,1567.88,市政工程
437,AJ320584-1,苏州市吴江区建设工程质量安全监督站,3205841911110201,320509202008130502,AJ320584120200385,2020-07-31,执法五中队201201（全区市政（非盛泽））,吴江区太湖新城规八路【春熙街】（春桐街-体育路）道路工程-吴江区太湖新城规八路【春熙街】（春桐街-体育路）道路工程,吴江区太湖新城,,,1658.89,市政工程
438,AJ320584-1,苏州市吴江区建设工程质量安全监督站,3205842003020206,320509202008040202,AJ320584120200383,2020-07-30,执法五中队201201（全区市政（非盛泽））,震泽镇凤凰花园及周边雨污分流改造工程,吴江区震泽镇凤凰花园及周边,30.919274,120.519131,678.17,市政工程
439,AJ320584-1,苏州市吴江区建设工程质量安全监督站,3205841711070101,320509202007240402,AJ320584120200348,2020-07-16,执法五中队201201（全区市政（非盛泽））,吴江区城南家园三期（东侧多层）室外附属配套工程,吴江区太湖新城,31.096178,120.655072,4384.48,市政工程
440,AJ320584-1,苏州市吴江区建设工程质量安全监督站,3205842003160201,320509202007280102,AJ320584120200347,2020-07-16,执法五中队201201（全区市政（非盛泽））,2020年黎里镇排水达标区建设工程-2020年黎里镇排水达标区建设工程（芦墟片区-160号区块）,吴江汾湖高新区,31.019714,120.817207,1454.04,市政工程
441,AJ320584-1,苏州市吴江区建设工程质量安全监督站,3205842001100201,320509202007230302,AJ320584120200331,2020-07-08,执法五中队201201（全区市政（非盛泽））,规七路[周家荡路]（春桐街-冬梅街）道路工程,吴江区太湖新城,31.155921,120.620923,1926.01,市政工程
442,AJ320584-1,苏州市吴江区建设工程质量安全监督站,3205842004150204,320509202007100302,AJ320584120200314,2020-07-02,执法五中队201201（全区市政（非盛泽））,2020年震泽镇新乐村、永乐村、蠡泽村、新幸村农村生活污水管道工程-2020 年震泽镇新乐村、永乐村、蠡泽村、新幸村农村生活污水管道工程,震泽镇新乐村、永乐村、蠡泽村、新幸村,31.170000,120.630000,1357.99,市政工程
443,AJ320584-1,苏州市吴江区建设工程质量安全监督站,3205841908020204,320509202005270202,AJ320584120200127,2020-05-07,执法五中队201201（全区市政（非盛泽））,吴江区2019-2020年高质量推进城乡生活污水治理工程（市政集团第一期）-吴江区 2019-2020 年高质量推进城乡生活污水治理工程（市政集团第一期）-商城路、罗北路,吴江区,31.170000,120.630000,717.31,市政工程
444,AJ320584-1,苏州市吴江区建设工程质量安全监督站,3205841908020204,320509202005200202,AJ320584120200125,2020-04-30,执法五中队201201（全区市政（非盛泽））,吴江区2019-2020年高质量推进城乡生活污水治理工程（市政集团第一期）-庙港庙街路、230省道、富太路,吴江区,31.170000,120.630000,623.21,市政工程
445,AJ320584-1,苏州市吴江区建设工程质量安全监督站,3205841908020204,320509202005110102,AJ320584120200119,2020-04-26,执法五中队201201（全区市政（非盛泽））,吴江区 2019-2020 年高质量推进城乡生活污水治理工程（市政集团第一期）-富乡大道、麻溪路,桃源镇,30.866046,120.537457,796.94,市政工程
446,AJ320584-1,苏州市吴江区建设工程质量安全监督站,3205841908020204,320509202005090202,AJ320584120200098,2020-04-22,执法五中队201201（全区市政（非盛泽））,吴江区2019-2020年高质量推进城乡生活污水治理工程（市政集团第一期）-吴江区2019-2020年高质量推进城乡生活污水治理工程（市政集团第一期）-铜七公路、万宝路、元春路,苏州市吴江区七都镇,30.941671,120.421687,716.33,主体
447,AJ320584-1,苏州市吴江区建设工程质量安全监督站,3205841908020204,320509202005140102,AJ320584120200094,2020-04-22,执法五中队201201（全区市政（非盛泽））,吴江区2019-2020年高质量推进城乡生活污水治理工程（市政集团第一期）-庙震公路,吴江区七都镇,30.988032,120.488009,614.03,市政工程
448,AJ320584-1,苏州市吴江区建设工程质量安全监督站,3205841908020204,320509202003250202,AJ320584120200063,2020-03-18,执法五中队201201（全区市政（非盛泽））,吴江区2019-2020年高质量推进城乡生活污水治理工程（市政集团第一期）-震泽镇318国道,吴江区,31.170000,120.630000,830.76,市政工程
449,AJ320584-1,苏州市吴江区建设工程质量安全监督站,3205841901170202,320509202004140102,AJ320584120200059,2020-03-12,执法五中队201201（全区市政（非盛泽））,西联小区、渡江小区、吴新村雨污分流改造工程-西联小区雨污分流改造工程,吴江经济技术开发区,31.170000,120.630000,971.96,市政工程
450,AJ320584-1,苏州市吴江区建设工程质量安全监督站,3205841905060201,320509201911110202,AJ320584120190427,2019-11-01,执法五中队201201（全区市政（非盛泽））,吴江经济技术开发区运东污水处理厂升级提标改造工程,吴江区江兴东路858号,31.177164,120.694323,6101.64,市政工程
451,AJ320584-1,苏州市吴江区建设工程质量安全监督站,3205841807160202,320509201901300102,AJ320584120190041,2019-01-21,执法五中队201201（全区市政（非盛泽））,吴江区平望镇百盛花园二期雨污分流综合改造工程-吴江区平望镇百盛花园二期雨污分流综合改造工程,吴江区平望镇百盛花园二期,30.983932,120.653176,519.38,市政工程
452,AJ320584-1,苏州市吴江区建设工程质量安全监督站,3205841702130201,,AJ320584120180149,2018-04-24,执法五中队201201（全区市政（非盛泽））,鲈乡路新建工程初步设计及概算，吴江经济技术开发区九龙路（樟木河-江陵西路）改造工程-鲈乡路（柳胥路-联中路）路桥新建工程,吴江经济技术开发区,31.170000,120.630000,32341.91,市政工程
453,AJ320584-1,苏州市吴江区建设工程质量安全监督站,3205842007210101,320509202107290101,AJ320584120211439,2021-07-27,监督七科（盛泽）,"吴江高新区（盛泽镇）绸都大道西侧1#地块住宅项目-1号楼,2号楼,3号楼,4号楼,5号楼,6号楼,7号楼,8号楼,9号楼,清洁屋1,清洁屋2,1号配电房,2号配电房,3号配电房,门卫,地下车库",吴江高新区（盛泽镇）绸都大道西侧1#地块,30.906517,120.611513,46164.98,房屋建筑
454,AJ320584-1,苏州市吴江区建设工程质量安全监督站,3205842104130101,320509202107280201,AJ320584120211425,2021-07-20,监督七科（盛泽）,车间四、地下消防泵房,盛泽镇荷花村,30.929470,120.644911,500,房屋建筑
455,AJ320584-1,苏州市吴江区建设工程质量安全监督站,3205842106030101,320509202107290301,AJ320584120211413,2021-07-14,监督七科（盛泽）,"2#宿舍楼,多层车间三",盛泽镇荷花村,30.929888,120.643129,3344,房屋建筑
456,AJ320584-1,苏州市吴江区建设工程质量安全监督站,3205842105260104,320509202107090101,AJ320584120211018,2021-07-08,监督七科（盛泽）,新建厂房,盛泽镇黄家溪村,31.170000,120.630000,3000,房屋建筑
457,AJ320584-1,苏州市吴江区建设工程质量安全监督站,3205841903180101,320509202107080101,AJ320584120211010,2021-07-06,监督七科（盛泽）,"7#车间,8#车间",吴江区盛泽镇坝里村,30.878193,120.624520,2788.61,房屋建筑
458,AJ320584-1,苏州市吴江区建设工程质量安全监督站,3205842105080101,320509202107020101,AJ320584120210998,2021-06-30,监督七科（盛泽）,年产低弹丝（DTY）4100吨技术改造项目-2#厂房,苏州市吴江区盛泽镇大谢村18组,30.869882,120.624835,1480,房屋建筑
459,AJ320584-1,苏州市吴江区建设工程质量安全监督站,3205842105200101,320509202106230201,AJ320584120210978,2021-06-18,监督七科（盛泽）,1#车间,盛泽镇胜超路与信达路交叉口,30.890814,120.677790,4028.36,房屋建筑
460,AJ320584-1,苏州市吴江区建设工程质量安全监督站,3205842104160102,320509202106160101,AJ320584120210960,2021-06-10,监督七科（盛泽）,年产16升大功率柴油发动机齿轮50000台套项目-车间五,盛泽镇坛丘社区双熟村,30.888374,120.604632,2300,房屋建筑
461,AJ320584-1,苏州市吴江区建设工程质量安全监督站,3205842103030101,320509202106110303,AJ320584120210958,2021-06-08,监督七科（盛泽）,内部装修,苏州市吴江区盛泽镇舜新南路112号,30.903093,120.667855,350,装饰装修
462,AJ320584-1,苏州市吴江区建设工程质量安全监督站,3205842104230103,320509202106090103,AJ320584120210956,2021-06-07,监督七科（盛泽）,内部装修,盛泽镇秋泽路988号苏杭之星花园3幢秋泽路960号、962号,30.914465,120.629353,50,装饰装修
463,AJ320584-1,苏州市吴江区建设工程质量安全监督站,3205841903210101,320509202106020301,AJ320584120210938,44343,监督七科（盛泽）,1#厂房、3#厂房,吴江区盛泽镇坝里村,30.878848,120.626748,2657.39,房屋建筑
464,AJ320584-1,苏州市吴江区建设工程质量安全监督站,3205842012070102,320509202105210101,AJ320584120210924,44334,监督七科（盛泽）,2#厂房,盛泽镇园区路,30.877248,120.615515,2278.27,房屋建筑
465,AJ320584-1,苏州市吴江区建设工程质量安全监督站,3205012009220106,320509202105170101,AJ320584120210916,2021-05-14,监督七科（盛泽）,"高新区（盛泽镇）东茂南侧商业地块商服项目-1#,3#,4#,5#,6#,地下建筑,2#",江苏省苏州市吴江区舜湖西路东茂南侧,30.908802,120.646650,63000,房屋建筑
466,AJ320584-1,苏州市吴江区建设工程质量安全监督站,3205841605250101,320509202105120101,AJ320584120210905,2021-05-08,监督七科（盛泽）,邻水湾景苑(恒力集团三分厂西地块）(56#楼～61#楼、15#配电房、16#配电房、门卫1、地下车库),盛泽镇南麻社区盛南公路南北两侧,30.884182,120.565389,13800,房屋建筑
467,AJ320584-1,苏州市吴江区建设工程质量安全监督站,3205842101270102,320509202104300201,AJ320584120210897,2021-04-30,监督七科（盛泽）,"吴江岭郅智能制造及智慧供应链产业园项目-物流仓库1,物流仓库2,物流仓库3,物流仓库4,货物运输平台1,货物运输平台2,货物运输平台3,盘道1,盘道2,辅助用房1,辅助用房2,综合楼,门卫一,门卫二",盛泽镇大谢村,30.886084,120.624341,71974.6,房屋建筑
468,AJ320584-1,苏州市吴江区建设工程质量安全监督站,3205842102250101,320509202104220101,AJ320584120210866,2021-04-19,监督七科（盛泽）,5#厂房,盛泽镇双熟村,30.890771,120.605247,1896,房屋建筑
469,AJ320584-1,苏州市吴江区建设工程质量安全监督站,3205842102240102,320509202104210101,AJ320584120210855,2021-04-12,监督七科（盛泽）,年产麂皮绒600万米技改项目-1#厂房,盛泽镇南麻永平村,30.887483,120.578114,679.99,房屋建筑
470,AJ320584-1,苏州市吴江区建设工程质量安全监督站,3205842102220101,320509202104090301,AJ320584120210853,2021-04-09,监督七科（盛泽）,"WJ-J-2020-030地块住宅项目-1#,2#,3#,4#,5#,P1#,P2#,K1、P3#,X1、L1、T1#,M1#,地下车库",吴江高新区（盛泽镇）万丽酒店东侧地块,30.911262,120.621486,20188.9,房屋建筑
471,AJ320584-1,苏州市吴江区建设工程质量安全监督站,3205841912310102,320509202104020401,AJ320584120210827,2021-03-25,监督七科（盛泽）,办公楼,盛泽镇南麻建中路43号,30.885592,120.553815,530,房屋建筑
472,AJ320584-1,苏州市吴江区建设工程质量安全监督站,3205841612080101,320509202103300201,AJ320584120210802,2021-03-12,监督七科（盛泽）,3#厂房,盛泽镇大谢村,30.864632,120.607471,1600,房屋建筑
473,AJ320584-1,苏州市吴江区建设工程质量安全监督站,3205842012150101,320509202102050101,AJ320584120210750,2021-02-02,监督七科（盛泽）,年加工绣花面料40万米、倍捻丝400吨技术改造项目-生产车间六,盛泽镇坝里村,30.871467,120.623712,1786,房屋建筑
474,AJ320584-1,苏州市吴江区建设工程质量安全监督站,3205842011200101,320509202101130101,AJ320584120200715,2020-12-31,监督七科（盛泽）,1#车间、2#车间、地下消防水池及泵房,盛泽镇园区路,30.847946,120.569738,3691.36,房屋建筑
475,AJ320584-1,苏州市吴江区建设工程质量安全监督站,3205842012070101,320509202012300701,AJ320584120200711,2020-12-30,监督七科（盛泽）,新建多层厂房18000平方米-6#厂房,苏州市吴江区盛泽镇荷花村,30.929490,120.644876,880,房屋建筑
476,AJ320584-1,苏州市吴江区建设工程质量安全监督站,3205841707120102,320509202012310701,AJ320584120200708,2020-12-30,监督七科（盛泽）,学之客栈景点工程,盛泽大道与东方中路交叉口东北侧,31.380000,120.980000,4448.02,房屋建筑
477,AJ320584-1,苏州市吴江区建设工程质量安全监督站,3205842007020102,320509202012310401,AJ320584120200702,2020-12-29,监督七科（盛泽）,车间（三）,盛泽镇圣塘村,30.862346,120.663849,1446.28,房屋建筑
478,AJ320584-1,苏州市吴江区建设工程质量安全监督站,3205841903120104,320509202012300401,AJ320584120200698,2020-12-29,监督七科（盛泽）,2#厂房,吴江区盛泽镇坝里村,30.879189,120.625131,4113,房屋建筑
479,AJ320584-1,苏州市吴江区建设工程质量安全监督站,3205842009110104,320509202012280401,AJ320584120200690,2020-12-25,监督七科（盛泽）,车间二,盛泽镇园区路3999号,30.877007,120.613875,1080,房屋建筑
480,AJ320584-1,苏州市吴江区建设工程质量安全监督站,3205841907220103,320509202012250601,AJ320584120200684,2020-12-24,监督七科（盛泽）,盛泽镇龙桥新村四期安置房工程（1#住宅、2#住宅、3#住宅、8#门卫二、10#配电房二、12#地下室A）,盛泽镇西二环路东侧,30.902137,120.631729,9755.08,房屋建筑
481,AJ320584-1,苏州市吴江区建设工程质量安全监督站,3205841903210102,320509202012280101,AJ320584120200683,2020-12-24,监督七科（盛泽）,2#厂房,盛泽镇坝里村,30.878644,120.623579,4558.39,房屋建筑
482,AJ320584-1,苏州市吴江区建设工程质量安全监督站,3205842010230104,320509202012250301,AJ320584120200681,2020-12-23,监督七科（盛泽）,年产针织布3600吨生产技术改造项目-8#车间,吴江区盛泽镇兴桥村,30.892441,120.702026,1580,房屋建筑
483,AJ320584-1,苏州市吴江区建设工程质量安全监督站,3205842006090101,320509202012240401,AJ320584120200679,2020-12-22,监督七科（盛泽）,国家先进功能纤维创新中心能力建设项目,吴江区盛泽镇庄平村,30.870549,120.584151,18000,房屋建筑
484,AJ320584-1,苏州市吴江区建设工程质量安全监督站,3205842009220101,320509202012240101,AJ320584120200678,2020-12-22,监督七科（盛泽）,车间一、地下泵房及消防水池,盛泽镇北环路888号,30.930915,120.644005,1180,房屋建筑
485,AJ320584-1,苏州市吴江区建设工程质量安全监督站,3205842008310102,320509202012230101,AJ320584120200670,2020-12-18,监督七科（盛泽）,新建车间20000平方米项目-车间四,盛泽镇南麻织庄路569号,30.892869,120.578235,598.8,房屋建筑
486,AJ320584-1,苏州市吴江区建设工程质量安全监督站,3205842008100104,320509202012220101,AJ320584120200662,2020-12-15,监督七科（盛泽）,4#车间,盛泽镇北环路北侧（红安村）,30.938109,120.682232,1758,房屋建筑
487,AJ320584-1,苏州市吴江区建设工程质量安全监督站,3205842010270102,320509202012150201,AJ320584120200654,2020-12-11,监督七科（盛泽）,年产新型染整配套设备500台项目（车间八）,苏州市吴江区盛泽镇圣塘村,31.170000,120.630000,954.8,房屋建筑
488,AJ320584-1,苏州市吴江区建设工程质量安全监督站,3205842008040101,320509202012150301,AJ320584120200652,2020-12-10,监督七科（盛泽）,年产服装、服饰5000万套-4#厂房,苏州市吴江区盛泽镇南三环路2666号,30.871269,120.625338,2000,房屋建筑
489,AJ320584-1,苏州市吴江区建设工程质量安全监督站,3205841907220103,320509202012240201,AJ320584120200651,2020-12-10,监督七科（盛泽）,"盛泽镇龙桥新村四期安置房工程（4#住宅,5#住宅,6#住宅,7#门卫一兼消防控制室,9#配电房一,11#物业用房,12#地下室B）",吴江高新区（盛泽镇）龙桥新村地块,30.903681,120.632156,13711.49,房屋建筑
490,AJ320584-1,苏州市吴江区建设工程质量安全监督站,3205842006170103,320509202012110201,AJ320584120200646,2020-12-09,监督七科（盛泽）,新建厂房75000平方米-1#车间,吴江盛泽镇大谢村32组,30.867329,120.609052,2127.15,房屋建筑
491,AJ320584-1,苏州市吴江区建设工程质量安全监督站,3205841812130102,320509202011240101,AJ320584120200611,2020-11-23,监督七科（盛泽）,吴江高新区（盛泽镇）潜龙渠北侧3#地块住宅、商服用房项目三期,苏州市吴江区盛泽镇东至田前荡，南至澜溪二路，西至潜龙渠北侧2号地块，北至田前荡,30.920354,120.620247,58120.96,房屋建筑
492,AJ320584-1,苏州市吴江区建设工程质量安全监督站,3205842003310101,320509202011250401,AJ320584120200608,2020-11-20,监督七科（盛泽）,"车间二,配电房",苏州市吴江区盛泽镇圣塘村,30.868212,120.602287,1666,房屋建筑
493,AJ320584-1,苏州市吴江区建设工程质量安全监督站,3205842007030101,320509202011260301,AJ320584120200606,2020-11-20,监督七科（盛泽）,新建厂房及宿舍14500平方米项目（车间十三、车间十四）,盛泽镇工业开发区西二环路,30.880215,120.631949,1534.55,房屋建筑
494,AJ320584-1,苏州市吴江区建设工程质量安全监督站,3205842008100101,320509202011060201,AJ320584120200584,2020-11-06,监督七科（盛泽）,新建厂房-5#厂房,苏州吴江盛泽镇圣塘村,30.865744,120.646470,887.38,房屋建筑
495,AJ320584-1,苏州市吴江区建设工程质量安全监督站,3205842008030101,320509202011030501,AJ320584120200568,2020-10-29,监督七科（盛泽）,4#车间,盛泽镇大谢村,30.866232,120.614958,5680,房屋建筑
496,AJ320584-1,苏州市吴江区建设工程质量安全监督站,3205842007060102,320509202010300501,AJ320584120200567,2020-10-29,监督七科（盛泽）,"新建新城实验小学（幼儿园）工程项目-B区行政楼,D区幼儿园,B区D区地下室,升旗台",盛泽镇绸都大道西侧,31.170000,120.630000,16298.86,房屋建筑
497,AJ320584-1,苏州市吴江区建设工程质量安全监督站,3205842007060102,320509202010300101,AJ320584120200565,2020-10-29,监督七科（盛泽）,"新建新城实验小学（幼儿园）工程项目-A区教学楼,C区食堂报告厅",盛泽镇绸都大道西侧,30.914377,120.612092,11100.14,房屋建筑
498,AJ320584-1,苏州市吴江区建设工程质量安全监督站,3205842008310102,320509202010300301,AJ320584120200563,2020-10-28,监督七科（盛泽）,车间三,盛泽镇南麻织庄路569号,30.892798,120.578644,1771.88,房屋建筑
499,AJ320584-1,苏州市吴江区建设工程质量安全监督站,3205842008110103,320509202010150401,AJ320584120200531,2020-10-14,监督七科（盛泽）,"年产经编布15000吨技术改造项目-3#厂房,4#厂房",盛泽镇永平村,30.893224,120.586661,2535.5,房屋建筑
500,AJ320584-1,苏州市吴江区建设工程质量安全监督站,3205842008110102,320509202010140201,AJ320584120200528,2020-10-14,监督七科（盛泽）,年产10万吨生物质纤维纺纱技术改造项目,苏州市吴江区盛泽镇园区路60号,30.876539,120.635906,4535,房屋建筑
501,AJ320584-1,苏州市吴江区建设工程质量安全监督站,3205842007210102,320509202009210201,AJ320584120200485,2020-09-21,监督七科（盛泽）,"吴江高新区（盛泽镇）绸都大道西侧2#地块住宅项目-2号楼,4号楼,7号楼,9号楼,10号楼,门卫,清洁屋1,1号配电房,地下室车库二标段",吴江高新区（盛泽镇）绸都大道西侧2#地块,30.908361,120.611207,35935.3,房屋建筑
502,AJ320584-1,苏州市吴江区建设工程质量安全监督站,3205842007210102,320509202009170101,AJ320584120200477,2020-09-16,监督七科（盛泽）,"吴江高新区（盛泽镇）绸都大道西侧2#地块住宅项目-3号楼,5号楼,6号楼,8号楼,11号楼,2号配电房,3号配电房,清洁屋2,地下车库一标段",吴江盛泽镇绸都大道西侧舜湖西路南侧2#地块,30.908934,120.611333,31656.09,房屋建筑
503,AJ320584-1,苏州市吴江区建设工程质量安全监督站,3205841705310101,320509202008260101,AJ320584120200409,2020-08-11,监督七科（盛泽）,车间二,吴江区盛泽镇溪南村,30.865504,120.593771,1600,房屋建筑
504,AJ320584-1,苏州市吴江区建设工程质量安全监督站,3205842006160101,320509202007220101,AJ320584120200360,2020-07-22,监督七科（盛泽）,新建车间,苏州市吴江区盛泽镇双熟村,30.891624,120.603464,691,房屋建筑
505,AJ320584-1,苏州市吴江区建设工程质量安全监督站,3205841908090105,320509202007080301,AJ320584120200327,2020-07-07,监督七科（盛泽）,吴江瑞兴医院有限公司翻建综合医疗大楼项目施工总承包工程,苏州吴江区盛泽镇西二环路西侧医院地块,30.921274,120.629868,5998,房屋建筑
506,AJ320584-1,苏州市吴江区建设工程质量安全监督站,3205841605250101,320509202006300101,AJ320584120200297,2020-06-29,监督七科（盛泽）,苏州德亚纺织有限公司北地块（邻水湾景苑四期）35#~49#楼、10#配电房、12#配电房、地下车库,苏州市吴江区盛泽镇织庄路1333号邻水湾景苑,30.890373,120.563454,34257.97,房屋建筑
507,AJ320584-1,苏州市吴江区建设工程质量安全监督站,3205842006090101,320509202006260101,AJ320584120200289,2020-06-26,监督七科（盛泽）,国家先进功能纤维创新中心能力建设项目-PTA库,苏州市盛泽镇庄平村,30.870828,120.585134,328.31,房屋建筑
508,AJ320584-1,苏州市吴江区建设工程质量安全监督站,3205841812130102,320509202005180101,AJ320584120200133,2020-05-09,监督七科（盛泽）,吴江高新区（盛泽镇）潜龙渠北侧3#地块住宅、商服用房项目二期,苏州市吴江区盛泽镇东至田前荡，南至澜溪二路，西至潜龙渠北侧2号地块，北至田前荡,30.920354,120.620247,31982.9,房屋建筑
509,AJ320584-1,苏州市吴江区建设工程质量安全监督站,3205841901080101,320509202004210101,AJ320584120200104,2020-04-17,监督七科（盛泽）,"建设盛泽镇区域性养老服务中心工程（1号护理院（住院病房楼）,2号老年公寓,3号护理院（住院病房楼）,4号配套用房）",盛泽镇西二环路敬老院内,30.888676,120.629322,17299.89,房屋建筑
510,AJ320584-1,苏州市吴江区建设工程质量安全监督站,3205841909230101,320509202004300201,AJ320584120200076,2020-03-27,监督七科（盛泽）,吴江盛泽2×100MW级燃机热电联产工程项目(标段一）,江苏省苏州市吴江区盛泽镇,31.170000,120.630000,19481,房屋建筑
511,AJ320584-1,苏州市吴江区建设工程质量安全监督站,3205841909230101,320509202004300101,AJ320584120200064,2020-03-18,监督七科（盛泽）,吴江盛泽2×100MW级燃机热电联产工程项目（标段二）,苏州吴江区盛泽镇庄平村,31.170000,120.630000,4553.45,房屋建筑
512,AJ320584-1,苏州市吴江区建设工程质量安全监督站,3205841912050102,320509202003060101,AJ320584120200051,2020-03-06,监督七科（盛泽）,吴江高新区（盛泽镇）白龙桥路东侧WJ-J-2019-023地块住宅项目,盛泽镇白龙桥路2588号,30.926163,120.639787,22782.88,房屋建筑
513,AJ320584-1,苏州市吴江区建设工程质量安全监督站,3205841905300101,320509201907190701,AJ320584120190274,2019-07-16,监督七科（盛泽）,吴江高新区（盛泽镇）蚬子荡南侧3#地块住宅项目-6#、8#~11#、配电房2、垃圾房、地库A,苏州市吴江区高新区（盛泽镇）蚬子荡南侧3#地块,30.913690,120.643070,16300,房屋建筑
514,AJ320584-1,苏州市吴江区建设工程质量安全监督站,3205841905300101,320509201907120201,AJ320584120190256,2019-07-05,监督七科（盛泽）,"吴江高新区（盛泽镇）蚬子荡南侧3#地块住宅项目（1#,2#,3#,5#,7#,配电房1,地下车库B）",吴江区盛泽镇,30.914619,120.642684,17530.48,房屋建筑
